cod.city;city;lat;long;state;pop;region
5200050;Abadia de Goiás;-16.7573;-49.4412;GO;8773;Centro-Oeste
3100104;Abadia dos Dourados;-18.4831;-47.3916;MG;6989;Sudeste
5200100;Abadiânia;-16.197;-48.7057;GO;20042;Centro-Oeste
3100203;Abaeté;-19.1551;-45.4444;MG;23237;Sudeste
1500107;Abaetetuba;-1.72183;-48.8788;PA;157698;Norte
2300101;Abaiara;-7.34588;-39.0416;CE;11737;Nordeste
2900108;Abaíra;-13.2488;-41.6619;BA;8739;Nordeste
2900207;Abaré;-8.72073;-39.1162;BA;20086;Nordeste
4100103;Abatiá;-23.3049;-50.3133;PR;7457;Sul
4200051;Abdon Batista;-27.6126;-51.0233;SC;2563;Sul
1500131;Abel Figueiredo;-4.95333;-48.3933;PA;7434;Norte
4200101;Abelardo Luz;-26.5716;-52.3229;SC;17904;Sul
3100302;Abre Campo;-20.2996;-42.4743;MG;13454;Sudeste
2600054;Abreu e Lima;-7.90072;-34.8984;PE;99990;Nordeste
1700251;Abreulândia;-9.62101;-49.1518;TO;2579;Norte
3100401;Acaiaca;-20.359;-43.1439;MG;3994;Sudeste
2100055;Açailândia;-4.94714;-47.5004;MA;112445;Nordeste
2900306;Acajutiba;-11.6575;-38.0197;BA;15159;Nordeste
1500206;Acará;-1.95383;-48.1985;PA;55591;Norte
2300150;Acarape;-4.22083;-38.7055;CE;14929;Nordeste
2300200;Acaraú;-2.88769;-40.1183;CE;62641;Nordeste
2400109;Acari;-6.4282;-36.6347;RN;11136;Nordeste
2200053;Acauã;-8.21954;-41.0831;PI;7084;Nordeste
4300034;Aceguá;-31.8665;-54.1615;RS;4901;Sul
2300309;Acopiara;-6.08911;-39.448;CE;54270;Nordeste
5100102;Acorizal;-15.194;-56.3632;MT;5399;Centro-Oeste
1200013;Acrelândia;-9.82581;-66.8972;AC;15256;Norte
5200134;Acreúna;-17.396;-50.3749;GO;22366;Centro-Oeste
2400208;Açu;-5.58362;-36.914;RN;58017;Nordeste
3100500;Açucena;-19.0671;-42.5419;MG;9470;Sudeste
3500105;Adamantina;-21.682;-51.0737;SP;35068;Sudeste
5200159;Adelândia;-16.4127;-50.1657;GO;2516;Centro-Oeste
3500204;Adolfo;-21.2325;-49.6451;SP;3562;Sudeste
4100202;Adrianópolis;-24.6606;-48.9922;PR;5919;Sul
2900355;Adustina;-10.5437;-38.1113;BA;17.04;Nordeste
2600104;Afogados da Ingazeira;-7.74312;-37.631;PE;37259;Nordeste
2400307;Afonso Bezerra;-5.49229;-36.5075;RN;11035;Nordeste
3200102;Afonso Cláudio;-20.0778;-41.1261;ES;30586;Sudeste
2100105;Afonso Cunha;-4.13631;-43.3275;MA;6524;Nordeste
2600203;Afrânio;-8.51136;-41.0095;PE;19635;Nordeste
1500305;Afuá;-0.154874;-50.3861;PA;39218;Norte
2600302;Agrestina;-8.45966;-35.9447;PE;24885;Nordeste
2200103;Agricolândia;-5.79676;-42.6664;PI;5139;Nordeste
4200200;Agrolândia;-27.4087;-49.822;SC;10864;Sul
4200309;Agronômica;-27.2662;-49.708;SC;5448;Sul
1500347;Água Azul do Norte;-6.79053;-50.4791;PA;27430;Norte
3100609;Água Boa;-17.9914;-42.3806;MG;13735;Sudeste
5100201;Água Boa;-14.051;-52.1601;MT;25721;Centro-Oeste
2200202;Água Branca;-5.88856;-42.637;PI;17411;Nordeste
2500106;Água Branca;-7.51144;-37.6357;PB;10234;Nordeste
2700102;Água Branca;-9.262;-37.938;AL;20196;Nordeste
5000203;Água Clara;-20.4452;-52.879;MS;15522;Centro-Oeste
3100708;Água Comprida;-20.0576;-48.1069;MG;1999;Sudeste
4200408;Água Doce;-26.9985;-51.5528;SC;7145;Sul
2100154;Água Doce do Maranhão;-2.84048;-42.1189;MA;12571;Nordeste
3200169;Água Doce do Norte;-18.5482;-40.9854;ES;11019;Sudeste
2900405;Água Fria;-11.8618;-38.7639;BA;16970;Nordeste
5200175;Água Fria de Goiás;-14.9778;-47.7823;GO;5735;Centro-Oeste
5200209;Água Limpa;-18.0771;-48.7603;GO;1850;Centro-Oeste
2400406;Água Nova;-6.20351;-38.2941;RN;3252;Nordeste
2600401;Água Preta;-8.70609;-35.5263;PE;36771;Nordeste
4300059;Água Santa;-28.1672;-52.031;RS;3748;Sul
3500303;Aguaí;-22.0572;-46.9735;SP;36305;Sudeste
3100807;Aguanil;-20.9439;-45.3915;MG;4486;Sudeste
2600500;Águas Belas;-9.11125;-37.1226;PE;43443;Nordeste
3500402;Águas da Prata;-21.9319;-46.7176;SP;8180;Sudeste
4200507;Águas de Chapecó;-27.0754;-52.9808;SC;6486;Sul
3500501;Águas de Lindóia;-22.4733;-46.6314;SP;18705;Sudeste
3500550;Águas de Santa Bárbara;-22.8812;-49.2421;SP;6075;Sudeste
3500600;Águas de São Pedro;-22.5977;-47.8734;SP;3451;Sudeste
3100906;Águas Formosas;-17.0802;-40.9384;MG;19207;Sudeste
4200556;Águas Frias;-26.8794;-52.8568;SC;2366;Sul
5200258;Águas Lindas de Goiás;-15.7617;-48.2816;GO;212440;Centro-Oeste
4200606;Águas Mornas;-27.6963;-48.8243;SC;6469;Sul
3101003;Águas Vermelhas;-15.7431;-41.4571;MG;13539;Sudeste
4300109;Agudo;-29.6447;-53.2515;RS;16461;Sul
3500709;Agudos;-22.4694;-48.9863;SP;37214;Sudeste
4100301;Agudos do Sul;-25.9899;-49.3343;PR;9371;Sul
3200136;Águia Branca;-18.9846;-40.7437;ES;9642;Sudeste
2500205;Aguiar;-7.0918;-38.1681;PB;5640;Nordeste
1700301;Aguiarnópolis;-6.55409;-47.4702;TO;6733;Norte
3101102;Aimorés;-19.5007;-41.0746;MG;25167;Sudeste
2900603;Aiquara;-14.1269;-39.8937;BA;4446;Nordeste
2300408;Aiuaba;-6.57122;-40.1178;CE;17399;Nordeste
3101201;Aiuruoca;-21.9736;-44.6042;MG;6003;Sudeste
4300208;Ajuricaba;-28.2342;-53.7757;RS;7024;Sul
3101300;Alagoa;-22.171;-44.6413;MG;2674;Sudeste
2500304;Alagoa Grande;-7.03943;-35.6206;PB;28496;Nordeste
2500403;Alagoa Nova;-7.05377;-35.7591;PB;20849;Nordeste
2500502;Alagoinha;-6.94657;-35.5332;PB;14489;Nordeste
2600609;Alagoinha;-8.4665;-36.7788;PE;14636;Nordeste
2200251;Alagoinha do Piauí;-7.00039;-40.9282;PI;7651;Nordeste
2900702;Alagoinhas;-12.1335;-38.4208;BA;151596;Nordeste
3500758;Alambari;-23.5503;-47.898;SP;6025;Sudeste
3101409;Albertina;-22.2018;-46.6139;MG;3007;Sudeste
2100204;Alcântara;-2.39574;-44.4062;MA;22097;Nordeste
2300507;Alcântaras;-3.58537;-40.5479;CE;11714;Nordeste
2500536;Alcantil;-7.73668;-36.0511;PB;5492;Nordeste
5000252;Alcinópolis;-18.3255;-53.7042;MS;5343;Centro-Oeste
2900801;Alcobaça;-17.5195;-39.2036;BA;22470;Nordeste
2100303;Aldeias Altas;-4.62621;-43.4689;MA;26532;Nordeste
4300307;Alecrim;-27.6579;-54.7649;RS;5950;Sul
3200201;Alegre;-20.758;-41.5382;ES;30084;Sudeste
4300406;Alegrete;-29.7902;-55.7949;RS;73589;Sul
2200277;Alegrete do Piauí;-7.24196;-40.8566;PI;4915;Nordeste
4300455;Alegria;-27.8345;-54.0557;RS;3464;Sul
3101508;Além Paraíba;-21.8797;-42.7176;MG;35362;Sudeste
1500404;Alenquer;-1.94623;-54.7384;PA;56789;Norte
2400505;Alexandria;-6.40533;-38.0142;RN;13577;Nordeste
5200308;Alexânia;-16.0834;-48.5076;GO;27653;Centro-Oeste
3101607;Alfenas;-21.4256;-45.9477;MG;79996;Sudeste
3200300;Alfredo Chaves;-20.6396;-40.7543;ES;14601;Sudeste
3500808;Alfredo Marcondes;-21.9527;-51.414;SP;4166;Sudeste
3101631;Alfredo Vasconcelos;-21.1535;-43.7718;MG;6907;Sudeste
4200705;Alfredo Wagner;-27.7001;-49.3273;SC;10036;Sul
2500577;Algodão de Jandaíra;-6.89292;-36.0129;PB;2567;Nordeste
2500601;Alhandra;-7.42977;-34.9057;PB;19588;Nordeste
2600708;Aliança;-7.60398;-35.2227;PE;38386;Nordeste
1700350;Aliança do Tocantins;-11.3056;-48.9361;TO;5390;Norte
2900900;Almadina;-14.7089;-39.6415;BA;5464;Nordeste
1700400;Almas;-11.5706;-47.1792;TO;7055;Norte
1500503;Almeirim;-1.52904;-52.5788;PA;34109;Norte
3101706;Almenara;-16.1785;-40.6942;MG;41896;Sudeste
2400604;Almino Afonso;-6.1475;-37.7636;RN;4735;Nordeste
4100400;Almirante Tamandaré;-25.3188;-49.3037;PR;118623;Sul
4300471;Almirante Tamandaré do Sul;-28.1149;-52.9142;RS;1964;Sul
5200506;Aloândia;-17.7292;-49.4769;GO;1995;Centro-Oeste
3101805;Alpercata;-18.974;-41.97;MG;7424;Sudeste
4300505;Alpestre;-27.2502;-53.0341;RS;6258;Sul
3101904;Alpinópolis;-20.8631;-46.3878;MG;19853;Sudeste
5100250;Alta Floresta;-9.86674;-56.0867;MT;51782;Centro-Oeste
1100015;Alta Floresta D'Oeste;-11.9283;-61.9953;RO;22945;Norte
3500907;Altair;-20.5242;-49.0571;SP;4160;Sudeste
1500602;Altamira;-3.20407;-52.21;PA;114594;Norte
2100402;Altamira do Maranhão;-4.16598;-45.4706;MA;8128;Nordeste
4100459;Altamira do Paraná;-24.7983;-52.7128;PR;1942;Sul
2300606;Altaneira;-6.99837;-39.7356;CE;7586;Nordeste
3102001;Alterosa;-21.2488;-46.1387;MG;14466;Sudeste
2600807;Altinho;-8.48482;-36.0644;PE;22972;Nordeste
3501004;Altinópolis;-21.0214;-47.3712;SP;16184;Sudeste
1400050;Alto Alegre;2.98858;-61.3072;RR;15510;Centro-Oeste
3501103;Alto Alegre;-21.5811;-50.168;SP;4099;Sudeste
4300554;Alto Alegre;-28.7769;-52.9893;RS;1638;Sul
2100436;Alto Alegre do Maranhão;-4.213;-44.446;MA;27053;Nordeste
2100477;Alto Alegre do Pindaré;-3.66689;-45.8421;MA;31919;Nordeste
1100379;Alto Alegre dos Parecis;-12.132;-61.835;RO;13241;Norte
5100300;Alto Araguaia;-17.3153;-53.2181;MT;19044;Centro-Oeste
4200754;Alto Bela Vista;-27.4333;-51.9044;SC;1937;Sul
5100359;Alto Boa Vista;-11.6732;-51.3883;MT;6822;Centro-Oeste
3102050;Alto Caparaó;-20.431;-41.8738;MG;5847;Sudeste
2400703;Alto do Rodrigues;-5.28186;-36.75;RN;14529;Nordeste
4300570;Alto Feliz;-29.3919;-51.3123;RS;3028;Sul
5100409;Alto Garças;-16.9462;-53.5272;MT;12030;Centro-Oeste
5200555;Alto Horizonte;-14.1978;-49.3378;GO;6414;Centro-Oeste
3153509;Alto Jequitibá;-20.4208;-41.967;MG;8317;Sudeste
2200301;Alto Longá;-5.25634;-42.2096;PI;14304;Nordeste
5100508;Alto Paraguai;-14.5137;-56.4776;MT;11356;Centro-Oeste
1100403;Alto Paraíso;-9.71429;-63.3188;RO;21428;Norte
4128625;Alto Paraíso;-26.1146;-52.7469;PR;2741;Sul
5200605;Alto Paraíso de Goiás;-14.1305;-47.51;GO;7624;Centro-Oeste
4100608;Alto Paraná;-23.1312;-52.3189;PR;14770;Sul
2100501;Alto Parnaíba;-9.10273;-45.9303;MA;11190;Nordeste
4100707;Alto Piquiri;-24.0224;-53.44;PR;9836;Sul
3102100;Alto Rio Doce;-21.0281;-43.4067;MG;11000;Sudeste
3200359;Alto Rio Novo;-19.0618;-41.0209;ES;7836;Sudeste
2300705;Alto Santo;-5.50894;-38.2743;CE;17146;Nordeste
5100607;Alto Taquari;-17.8241;-53.2792;MT;10847;Centro-Oeste
4100509;Altônia;-23.8759;-53.8958;PR;22056;Sul
2200400;Altos;-5.03888;-42.4612;PI;40524;Nordeste
3501152;Alumínio;-23.5306;-47.2546;SP;18628;Sudeste
1300029;Alvarães;-3.22727;-64.8007;AM;16041;Norte
3102209;Alvarenga;-19.4174;-41.7317;MG;3907;Sudeste
3501202;Álvares Florence;-20.3203;-49.9141;SP;3679;Sudeste
3501301;Álvares Machado;-22.0764;-51.4722;SP;24915;Sudeste
3501400;Álvaro de Carvalho;-22.0841;-49.719;SP;5227;Sudeste
3501509;Alvinlândia;-22.4435;-49.7623;SP;3222;Sudeste
3102308;Alvinópolis;-20.1098;-43.0535;MG;15203;Sudeste
1700707;Alvorada;-12.4785;-49.1249;TO;8412;Norte
4300604;Alvorada;-29.9914;-51.0809;RS;210305;Sul
3102407;Alvorada de Minas;-18.7334;-43.3638;MG;3606;Sudeste
2200459;Alvorada do Gurguéia;-8.42418;-43.777;PI;5419;Nordeste
5200803;Alvorada do Norte;-14.4797;-46.491;GO;8660;Centro-Oeste
4100806;Alvorada do Sul;-22.7813;-51.2297;PR;11406;Sul
1100346;Alvorada D'Oeste;-11.3463;-62.2847;RO;14411;Norte
1400027;Amajari;3.64571;-61.3692;RR;12796;Centro-Oeste
5000609;Amambai;-23.1058;-55.2253;MS;39396;Centro-Oeste
1600105;Amapá;2.05267;-50.7957;AP;9109;Norte
2100550;Amapá do Maranhão;-1.67524;-46.0024;MA;6962;Nordeste
4100905;Amaporã;-23.0943;-52.7866;PR;6257;Sul
2600906;Amaraji;-8.37691;-35.4501;PE;22829;Nordeste
4300638;Amaral Ferrador;-30.8756;-52.2509;RS;7031;Sul
5200829;Amaralina;-13.9236;-49.2962;GO;3812;Centro-Oeste
2200509;Amarante;-6.24304;-42.8433;PI;17598;Nordeste
2100600;Amarante do Maranhão;-5.56913;-46.7473;MA;41435;Nordeste
2901007;Amargosa;-13.0215;-39.602;BA;37.241;Nordeste
1300060;Amaturá;-3.37455;-68.2005;AM;11536;Norte
2901106;Amélia Rodrigues;-12.3914;-38.7563;BA;25102;Nordeste
2901155;América Dourada;-11.4429;-41.439;BA;16094;Nordeste
3501608;Americana;-22.7374;-47.3331;SP;239597;Sudeste
5200852;Americano do Brasil;-16.2514;-49.9831;GO;6111;Centro-Oeste
3501707;Américo Brasiliense;-21.7288;-48.1147;SP;40504;Sudeste
3501806;Américo de Campos;-20.2985;-49.7359;SP;5969;Sudeste
4300646;Ametista do Sul;-27.3607;-53.183;RS;7409;Sul
2300754;Amontada;-3.36017;-39.8288;CE;43452;Nordeste
5200902;Amorinópolis;-16.6151;-51.0919;GO;3126;Centro-Oeste
2500734;Amparo;-7.55502;-37.0628;PB;2238;Nordeste
3501905;Amparo;-22.7088;-46.772;SP;72195;Sudeste
2800100;Amparo de São Francisco;-10.1348;-36.935;SE;2374;Nordeste
3102506;Amparo do Serra;-20.5051;-42.8009;MG;4713;Sudeste
4101002;Ampére;-25.9168;-53.4686;PR;19152;Sul
2700201;Anadia;-9.68489;-36.3078;AL;17545;Nordeste
2901205;Anagé;-14.6151;-41.1356;BA;22005;Nordeste
4101051;Anahy;-24.6449;-53.1332;PR;2801;Sul
1500701;Anajás;-0.996811;-49.9354;PA;29277;Norte
2100709;Anajatuba;-3.26269;-44.6126;MA;26803;Nordeste
3502002;Analândia;-22.1289;-47.6619;SP;4995;Sudeste
1300086;Anamã;-3.56697;-61.3963;AM;13614;Norte
1701002;Ananás;-6.36437;-48.0735;TO;9549;Norte
1500800;Ananindeua;-1.36391;-48.3743;PA;530598;Norte
5201108;Anápolis;-16.3281;-48.953;GO;386923;Centro-Oeste
1500859;Anapu;-3.46985;-51.2003;PA;27890;Norte
2100808;Anapurus;-3.67577;-43.1014;MA;15732;Nordeste
5000708;Anastácio;-20.4823;-55.8104;MS;25135;Centro-Oeste
5000807;Anaurilândia;-22.1852;-52.7191;MS;9035;Centro-Oeste
3200409;Anchieta;-20.7955;-40.6425;ES;29263;Sudeste
4200804;Anchieta;-26.5382;-53.3319;SC;5638;Sul
2901304;Andaraí;-12.8049;-41.3297;BA;13143;Nordeste
4101101;Andirá;-23.0533;-50.2304;PR;20031;Sul
2901353;Andorinha;-10.3482;-39.8391;BA;14595;Nordeste
3102605;Andradas;-22.0695;-46.5724;MG;41077;Sudeste
3502101;Andradina;-20.8948;-51.3786;SP;57157;Sudeste
4300661;André da Rocha;-28.6283;-51.5797;RS;1333;Sul
3102803;Andrelândia;-21.7411;-44.3117;MG;12224;Sudeste
3502200;Angatuba;-23.4917;-48.4139;SP;25228;Sudeste
3102852;Angelândia;-17.7279;-42.2641;MG;8520;Sudeste
5000856;Angélica;-22.1527;-53.7708;MS;10780;Centro-Oeste
2601003;Angelim;-8.88429;-36.2902;PE;11150;Nordeste
4200903;Angelina;-27.5704;-48.9879;SC;4801;Sul
2901403;Angical;-12.0063;-44.7003;BA;13977;Nordeste
2200608;Angical do Piauí;-6.08786;-42.74;PI;6788;Nordeste
1701051;Angico;-6.39179;-47.8611;TO;3433;Norte
2400802;Angicos;-5.65792;-36.6094;RN;11714;Nordeste
3300100;Angra dos Reis;-23.0011;-44.3196;RJ;203785;Sudeste
2901502;Anguera;-12.1462;-39.2462;BA;11221;Nordeste
4101150;Ângulo;-23.1946;-51.9154;PR;2928;Sul
5201207;Anhanguera;-18.3339;-48.2204;GO;1149;Centro-Oeste
3502309;Anhembi;-22.793;-48.1336;SP;6724;Sudeste
3502408;Anhumas;-22.2934;-51.3895;SP;4115;Sudeste
5201306;Anicuns;-16.4642;-49.9617;GO;21850;Centro-Oeste
2200707;Anísio de Abreu;-9.18564;-43.0494;PI;9880;Nordeste
4201000;Anita Garibaldi;-27.6897;-51.1271;SC;7133;Sul
4201109;Anitápolis;-27.9012;-49.1316;SC;3232;Sul
1300102;Anori;-3.74603;-61.6575;AM;21010;Norte
4300703;Anta Gorda;-28.9698;-52.0102;RS;5981;Sul
2901601;Antas;-10.3856;-38.3401;BA;19291;Nordeste
4101200;Antonina;-25.4386;-48.7191;PR;18980;Sul
2300804;Antonina do Norte;-6.76919;-39.987;CE;7353;Nordeste
2200806;Antônio Almeida;-7.21276;-44.1889;PI;3164;Nordeste
2901700;Antônio Cardoso;-12.4335;-39.1176;BA;11683;Nordeste
3102902;Antônio Carlos;-21.321;-43.7451;MG;11445;Sudeste
4201208;Antônio Carlos;-27.5191;-48.766;SC;8513;Sul
3103009;Antônio Dias;-19.6491;-42.8732;MG;9318;Sudeste
2901809;Antônio Gonçalves;-10.5767;-40.2785;BA;11798;Nordeste
5000906;Antônio João;-22.1927;-55.9517;MS;8956;Centro-Oeste
2400901;Antônio Martins;-6.21367;-37.8834;RN;7145;Nordeste
4101309;Antônio Olinto;-25.9804;-50.1972;PR;7434;Sul
4300802;Antônio Prado;-28.8565;-51.2883;RS;13050;Sul
3103108;Antônio Prado de Minas;-21.0192;-42.1109;MG;1598;Sudeste
2500775;Aparecida;-6.78466;-38.0803;PB;8347;Nordeste
3502507;Aparecida;-22.8495;-45.2325;SP;36157;Sudeste
5201405;Aparecida de Goiânia;-16.8198;-49.2469;GO;578179;Centro-Oeste
5201454;Aparecida do Rio Doce;-18.2941;-51.1516;GO;2474;Centro-Oeste
1701101;Aparecida do Rio Negro;-9.94139;-47.9638;TO;4795;Norte
5001003;Aparecida do Taboado;-20.0873;-51.0961;MS;25745;Centro-Oeste
3502606;Aparecida d'Oeste;-20.4487;-50.8835;SP;4196;Sudeste
3300159;Aperibé;-21.6252;-42.1017;RJ;11759;Sudeste
3200508;Apiacá;-21.1523;-41.5693;ES;7567;Sudeste
5100805;Apiacás;-9.53981;-57.4587;MT;10133;Centro-Oeste
3502705;Apiaí;-24.5108;-48.8443;SP;24374;Sudeste
2100832;Apicum-Açu;-1.45862;-45.0864;MA;17239;Nordeste
4201257;Apiúna;-27.0375;-49.3885;SC;10743;Sul
2401008;Apodi;-5.65349;-37.7946;RN;35845;Nordeste
2901908;Aporá;-11.6577;-38.0814;BA;17731;Nordeste
5201504;Aporé;-18.9607;-51.9232;GO;4198;Centro-Oeste
2901957;Apuarema;-13.8542;-39.7501;BA;7330;Nordeste
4101408;Apucarana;-23.55;-51.4635;PR;134996;Sul
1300144;Apuí;-7.19409;-59.896;AM;21973;Norte
2300903;Apuiarés;-3.94506;-39.4359;CE;14600;Nordeste
2800209;Aquidabã;-10.278;-37.0148;SE;21563;Nordeste
5001102;Aquidauana;-20.4666;-55.7868;MS;47871;Centro-Oeste
2301000;Aquiraz;-3.89929;-38.3896;CE;80271;Nordeste
4201273;Arabutã;-27.1587;-52.1423;SC;4267;Sul
2500809;Araçagi;-6.84374;-35.3737;PB;16987;Nordeste
3103207;Araçaí;-19.1955;-44.2493;MG;2347;Sudeste
2800308;Aracaju;-10.9091;-37.0677;SE;657013;Nordeste
3502754;Araçariguama;-23.4366;-47.0608;SP;22364;Sudeste
2902054;Araças;-12.22;-38.2027;BA;12177;Nordeste
2301109;Aracati;-4.55826;-37.7679;CE;74547;Nordeste
2902005;Aracatu;-14.428;-41.4648;BA;13135;Nordeste
3502804;Araçatuba;-21.2076;-50.4401;SP;197016;Sudeste
2902104;Araci;-11.3253;-38.9584;BA;54379;Nordeste
3103306;Aracitaba;-21.3446;-43.3736;MG;2063;Sudeste
2301208;Aracoiaba;-4.36872;-38.8125;CE;26469;Nordeste
2601052;Araçoiaba;-7.78391;-35.0809;PE;20524;Nordeste
3502903;Araçoiaba da Serra;-23.5029;-47.6166;SP;34146;Sudeste
3200607;Aracruz;-19.82;-40.2764;ES;101220;Sudeste
5201603;Araçu;-16.3563;-49.6804;GO;3522;Centro-Oeste
3103405;Araçuaí;-16.8523;-42.0637;MG;36708;Sudeste
5201702;Aragarças;-15.8955;-52.2372;GO;20118;Centro-Oeste
5201801;Aragoiânia;-16.9087;-49.4476;GO;10308;Centro-Oeste
1701309;Aragominas;-7.16005;-48.5291;TO;5758;Norte
1701903;Araguacema;-8.80755;-49.5569;TO;7086;Norte
1702000;Araguaçu;-12.9289;-49.8231;TO;8517;Norte
5101001;Araguaiana;-15.7291;-51.8341;MT;3100;Centro-Oeste
1702109;Araguaína;-7.19238;-48.2044;TO;180470;Norte
5101209;Araguainha;-16.857;-53.0318;MT;935;Centro-Oeste
1702158;Araguanã;-6.58225;-48.6395;TO;5729;Norte
2100873;Araguanã;-2.94644;-45.6589;MA;15426;Nordeste
5202155;Araguapaz;-15.0909;-50.6315;GO;7770;Centro-Oeste
3103504;Araguari;-18.6456;-48.1934;MG;117267;Sudeste
1702208;Araguatins;-5.64659;-48.1232;TO;35761;Norte
2100907;Araioses;-2.89091;-41.905;MA;46440;Nordeste
5001243;Aral Moreira;-22.9385;-55.6334;MS;12149;Centro-Oeste
2902203;Aramari;-12.0884;-38.4969;BA;11397;Nordeste
4300851;Arambaré;-30.9092;-51.5046;RS;3581;Sul
2100956;Arame;-4.88347;-46.0032;MA;32701;Nordeste
3503000;Aramina;-20.0882;-47.7873;SP;5620;Sudeste
3503109;Arandu;-23.1386;-49.0487;SP;6357;Sudeste
3103603;Arantina;-21.9102;-44.2555;MG;2795;Sudeste
3503158;Arapeí;-22.6717;-44.4441;SP;2469;Sudeste
2700300;Arapiraca;-9.75487;-36.6615;AL;231747;Nordeste
1702307;Arapoema;-7.65463;-49.0637;TO;6643;Norte
3103702;Araponga;-20.6686;-42.5178;MG;8439;Sudeste
4101507;Arapongas;-23.4153;-51.4259;PR;123027;Sul
3103751;Araporã;-18.4357;-49.1847;MG;6869;Sudeste
4101606;Arapoti;-24.1548;-49.8285;PR;28115;Sul
3103801;Arapuá;-19.0268;-46.1484;MG;2834;Sudeste
4101655;Arapuã;-24.3132;-51.7856;PR;3068;Sul
5101258;Araputanga;-15.4641;-58.3425;MT;16822;Centro-Oeste
4201307;Araquari;-26.3754;-48.7188;SC;38129;Sul
2500908;Arara;-6.82813;-35.7552;PB;13470;Nordeste
4201406;Araranguá;-28.9356;-49.4918;SC;68228;Sul
3503208;Araraquara;-21.7845;-48.178;SP;236072;Sudeste
3503307;Araras;-22.3572;-47.3842;SP;134236;Sudeste
2301257;Ararendá;-4.74567;-40.831;CE;10935;Nordeste
2101004;Arari;-3.45214;-44.7665;MA;29848;Nordeste
4300877;Araricá;-29.6168;-50.9291;RS;5698;Sul
2301307;Araripe;-7.21319;-40.1359;CE;21600;Nordeste
2601102;Araripina;-7.57073;-40.494;PE;84418;Nordeste
3300209;Araruama;-22.8697;-42.3326;RJ;132400;Sudeste
2501005;Araruna;-6.54848;-35.7498;PB;20312;Nordeste
4101705;Araruna;-23.9315;-52.5021;PR;13970;Sul
2902252;Arataca;-15.2651;-39.419;BA;11019;Nordeste
4300901;Aratiba;-27.3978;-52.2975;RS;6235;Sul
2301406;Aratuba;-4.41229;-39.0471;CE;11847;Nordeste
2902302;Aratuípe;-13.0716;-39.0038;BA;8825;Nordeste
2800407;Arauá;-11.2614;-37.6201;SE;10056;Nordeste
4101804;Araucária;-25.5859;-49.4047;PR;143843;Sul
3103900;Araújos;-19.9405;-45.1671;MG;9273;Sudeste
3104007;Araxá;-19.5902;-46.9438;MG;106229;Sudeste
3104106;Arceburgo;-21.359;-46.9401;MG;10772;Sudeste
3503356;Arco-Íris;-21.7728;-50.466;SP;1791;Sudeste
3104205;Arcos;-20.2863;-45.5373;MG;40092;Sudeste
2601201;Arcoverde;-8.41519;-37.0577;PE;74338;Nordeste
3104304;Areado;-21.3572;-46.1421;MG;15070;Sudeste
3300225;Areal;-22.2283;-43.1118;RJ;12572;Sudeste
3503406;Arealva;-22.031;-48.9135;SP;8560;Sudeste
2501104;Areia;-6.96396;-35.6977;PB;22819;Nordeste
2401107;Areia Branca;-4.95254;-37.1252;RN;27774;Nordeste
2800506;Areia Branca;-10.758;-37.3251;SE;18542;Nordeste
2501153;Areia de Baraúnas;-7.11702;-36.9404;PB;2128;Nordeste
2501203;Areial;-7.04789;-35.9313;PB;6998;Nordeste
3503505;Areias;-22.5786;-44.6992;SP;3886;Sudeste
3503604;Areiópolis;-22.6672;-48.6681;SP;11129;Sudeste
5101308;Arenápolis;-14.4472;-56.8437;MT;9607;Centro-Oeste
5202353;Arenópolis;-16.3837;-51.5563;GO;2612;Centro-Oeste
2401206;Arês;-6.18831;-35.1608;RN;14306;Nordeste
3104403;Argirita;-21.6083;-42.8292;MG;2727;Sudeste
3104452;Aricanduva;-17.8666;-42.5533;MG;5231;Sudeste
3104502;Arinos;-15.9187;-46.1043;MG;17875;Sudeste
5101407;Aripuanã;-10.1723;-59.4568;MT;22354;Centro-Oeste
1100023;Ariquemes;-9.90571;-63.0325;RO;107863;Norte
3503703;Ariranha;-21.1872;-48.7904;SP;9668;Sudeste
4101853;Ariranha do Ivaí;-24.3857;-51.5839;PR;2108;Sul
3300233;Armação dos Búzios;-22.7528;-41.8846;RJ;33870;Sudeste
4201505;Armazém;-28.2448;-49.0215;SC;8674;Sul
2301505;Arneiroz;-6.3165;-40.1653;CE;7840;Nordeste
2200905;Aroazes;-6.11022;-41.7822;PI;5835;Nordeste
2501302;Aroeiras;-7.54473;-35.7066;PB;19153;Nordeste
2200954;Aroeiras do Itaim;-7.24502;-41.5325;PI;2551;Nordeste
2201002;Arraial;-6.65075;-42.5418;PI;4727;Nordeste
3300258;Arraial do Cabo;-22.9774;-42.0267;RJ;30349;Sudeste
1702406;Arraias;-12.9287;-46.9359;TO;10567;Norte
4301008;Arroio do Meio;-29.4014;-51.9557;RS;20805;Sul
4301073;Arroio do Padre;-31.4389;-52.4246;RS;2937;Sul
4301057;Arroio do Sal;-29.5439;-49.8895;RS;10065;Sul
4301206;Arroio do Tigre;-29.3348;-53.0966;RS;13373;Sul
4301107;Arroio dos Ratos;-30.0875;-51.7275;RS;14151;Sul
4301305;Arroio Grande;-32.2327;-53.0862;RS;18293;Sul
4201604;Arroio Trinta;-26.9257;-51.3407;SC;3550;Sul
3503802;Artur Nogueira;-22.5727;-47.1727;SP;54408;Sudeste
5202502;Aruanã;-14.9166;-51.075;GO;9875;Centro-Oeste
3503901;Arujá;-23.3965;-46.32;SP;89824;Sudeste
4201653;Arvoredo;-27.0748;-52.4543;SC;2240;Sul
4301404;Arvorezinha;-28.8737;-52.1781;RS;10424;Sul
4201703;Ascurra;-26.9548;-49.3783;SC;7934;Sul
3503950;Aspásia;-20.16;-50.728;SP;1822;Sudeste
4101903;Assaí;-23.3697;-50.8459;PR;15119;Sul
2301604;Assaré;-6.8669;-39.8689;CE;23417;Nordeste
3504008;Assis;-22.66;-50.4183;SP;104386;Sudeste
1200054;Assis Brasil;-10.9298;-69.5738;AC;7417;Norte
4102000;Assis Chateaubriand;-24.4168;-53.5213;PR;33362;Sul
2501351;Assunção;-7.07231;-36.725;PB;3990;Nordeste
2201051;Assunção do Piauí;-5.865;-41.0389;PI;7846;Nordeste
3104601;Astolfo Dutra;-21.3184;-42.8572;MG;14179;Sudeste
4102109;Astorga;-23.2318;-51.6668;PR;26111;Sul
2700409;Atalaia;-9.5119;-36.0086;AL;47185;Nordeste
4102208;Atalaia;-23.1517;-52.0551;PR;3892;Sul
1300201;Atalaia do Norte;-4.37055;-70.1967;AM;19921;Norte
4201802;Atalanta;-27.4219;-49.7789;SC;3210;Sul
3104700;Ataléia;-18.0438;-41.1149;MG;12868;Sudeste
3504107;Atibaia;-23.1171;-46.5563;SP;142761;Sudeste
3200706;Atilio Vivacqua;-20.913;-41.1986;ES;11936;Sudeste
1702554;Augustinópolis;-5.46863;-47.8863;TO;18412;Norte
1500909;Augusto Corrêa;-1.05109;-46.6147;PA;45998;Norte
3104809;Augusto de Lima;-18.0997;-44.2655;MG;4869;Sudeste
4301503;Augusto Pestana;-28.5172;-53.9883;RS;6661;Sul
4301552;Áurea;-27.6936;-52.0505;RS;3554;Sul
2902401;Aurelino Leal;-14.321;-39.329;BA;11531;Nordeste
3504206;Auriflama;-20.6836;-50.5572;SP;15189;Sudeste
5202601;Aurilândia;-16.6773;-50.4641;GO;3120;Centro-Oeste
2301703;Aurora;-6.93349;-38.9742;CE;24654;Nordeste
4201901;Aurora;-27.3098;-49.6295;SC;5679;Sul
1500958;Aurora do Pará;-2.14898;-47.5677;PA;31338;Norte
1702703;Aurora do Tocantins;-12.7105;-46.4076;TO;3757;Norte
1300300;Autazes;-3.58574;-59.1256;AM;39565;Norte
3504305;Avaí;-22.1514;-49.3356;SP;5403;Sudeste
3504404;Avanhandava;-21.4584;-49.9509;SP;13649;Sudeste
3504503;Avaré;-23.1067;-48.9251;SP;90655;Sudeste
1501006;Aveiro;-3.60841;-55.3199;PA;16388;Norte
2201101;Avelino Lopes;-10.1345;-43.9563;PI;11289;Nordeste
5202809;Avelinópolis;-16.4672;-49.7579;GO;2417;Centro-Oeste
2101103;Axixá;-2.83939;-44.062;MA;12130;Nordeste
1702901;Axixá do Tocantins;-5.61275;-47.7701;TO;9756;Norte
1703008;Babaçulândia;-7.20923;-47.7613;TO;10664;Norte
2101202;Bacabal;-4.22447;-44.7832;MA;104949;Nordeste
2101251;Bacabeira;-2.96452;-44.3164;MA;17055;Nordeste
2101301;Bacuri;-1.6965;-45.1328;MA;18582;Nordeste
2101350;Bacurituba;-2.71;-44.7329;MA;5644;Nordeste
3504602;Bady Bassitt;-20.9197;-49.4385;SP;17502;Sudeste
3104908;Baependi;-21.957;-44.8874;MG;19148;Sudeste
4301602;Bagé;-31.3297;-54.0999;RS;121143;Sul
1501105;Bagre;-1.90057;-50.1987;PA;30673;Norte
2501401;Baía da Traição;-6.69209;-34.9381;PB;8993;Nordeste
2401404;Baía Formosa;-6.37161;-35.0033;RN;9271;Nordeste
2902500;Baianópolis;-12.3016;-44.5388;BA;13877;Nordeste
1501204;Baião;-2.79021;-49.6694;PA;47446;Norte
2902609;Baixa Grande;-11.9519;-40.169;BA;20468;Nordeste
2201150;Baixa Grande do Ribeiro;-7.84903;-45.219;PI;11586;Nordeste
2301802;Baixio;-6.71945;-38.7134;CE;6288;Nordeste
3200805;Baixo Guandu;-19.5213;-41.0109;ES;30998;Sudeste
3504701;Balbinos;-21.8963;-49.3619;SP;5735;Sudeste
3105004;Baldim;-19.2832;-43.9613;MG;7826;Sudeste
5203104;Baliza;-16.1966;-52.5393;GO;5138;Centro-Oeste
4201950;Balneário Arroio do Silva;-28.9806;-49.4237;SC;13071;Sul
4202057;Balneário Barra do Sul;-26.4597;-48.6123;SC;10795;Sul
4202008;Balneário Camboriú;-26.9926;-48.6352;SC;142295;Sul
4202073;Balneário Gaivota;-29.1527;-49.5841;SC;10979;Sul
4212809;Balneário Piçarras;-26.7639;-48.6717;SC;23147;Sul
4301636;Balneário Pinhal;-30.2419;-50.2337;RS;14068;Sul
4220000;Balneário Rincão;-28.8314;-49.2352;SC;12760;Sul
4102307;Balsa Nova;-25.5804;-49.6291;PR;12941;Sul
3504800;Bálsamo;-20.7348;-49.5865;SP;9068;Sudeste
2101400;Balsas;-7.53214;-46.0372;MA;94887;Nordeste
3105103;Bambuí;-20.0166;-45.9754;MG;23829;Sudeste
2301851;Banabuiú;-5.30454;-38.9132;CE;18197;Nordeste
3504909;Bananal;-22.6819;-44.3281;SP;10945;Sudeste
2501500;Bananeiras;-6.74775;-35.6246;PB;21318;Nordeste
3105202;Bandeira;-15.8783;-40.5622;MG;4795;Sudeste
3105301;Bandeira do Sul;-21.7308;-46.3833;MG;5746;Sudeste
4202081;Bandeirante;-26.7705;-53.6413;SC;2678;Sul
4102406;Bandeirantes;-23.1078;-50.3704;PR;31367;Sul
5001508;Bandeirantes;-19.9275;-54.3585;MS;6788;Centro-Oeste
1703057;Bandeirantes do Tocantins;-7.75612;-48.5836;TO;3553;Norte
1501253;Bannach;-7.34779;-50.3959;PA;3286;Norte
2902658;Banzaê;-10.5788;-38.6212;BA;13.229;Nordeste
4301651;Barão;-29.3725;-51.4949;RS;6171;Sul
3505005;Barão de Antonina;-23.6284;-49.5634;SP;3469;Sudeste
3105400;Barão de Cocais;-19.9389;-43.4755;MG;32485;Sudeste
4301701;Barão de Cotegipe;-27.6208;-52.3798;RS;6623;Sul
2101509;Barão de Grajaú;-6.74463;-43.0261;MA;18820;Nordeste
5101605;Barão de Melgaço;-16.2067;-55.9623;MT;8564;Centro-Oeste
3105509;Barão de Monte Alto;-21.2444;-42.2372;MG;5397;Sudeste
4301750;Barão do Triunfo;-30.3891;-51.7384;RS;7487;Sul
2401453;Baraúna;-5.06977;-37.6129;RN;28374;Nordeste
2501534;Baraúna;-6.63484;-36.2601;PB;4892;Nordeste
3105608;Barbacena;-21.2214;-43.7703;MG;137313;Sudeste
2301901;Barbalha;-7.2982;-39.3021;CE;60781;Nordeste
3505104;Barbosa;-21.2657;-49.9518;SP;7402;Sudeste
4102505;Barbosa Ferraz;-24.0334;-52.004;PR;11568;Sul
1501303;Barcarena;-1.51187;-48.6195;PA;124680;Norte
2401503;Barcelona;-5.94284;-35.9247;RN;3998;Nordeste
1300409;Barcelos;-0.983373;-62.9311;AM;27502;Norte
3505203;Bariri;-22.073;-48.7438;SP;35264;Sudeste
2902708;Barra;-11.0859;-43.1459;BA;53578;Nordeste
3505302;Barra Bonita;-22.4909;-48.5583;SP;36126;Sudeste
4202099;Barra Bonita;-26.654;-53.44;SC;1677;Sul
2902807;Barra da Estiva;-13.6237;-41.3347;BA;20598;Nordeste
2201176;Barra D'Alcântara;-6.51645;-42.1146;PI;3951;Nordeste
2601300;Barra de Guabiraba;-8.42075;-35.6585;PE;14385;Nordeste
2501609;Barra de Santa Rosa;-6.71816;-36.0671;PB;15384;Nordeste
2501575;Barra de Santana;-7.51809;-35.9913;PB;8359;Nordeste
2700508;Barra de Santo Antônio;-9.4023;-35.5101;AL;15932;Nordeste
3200904;Barra de São Francisco;-18.7548;-40.8965;ES;44650;Sudeste
2501708;Barra de São Miguel;-7.74603;-36.3209;PB;6036;Nordeste
2700607;Barra de São Miguel;-9.83842;-35.9057;AL;8322;Nordeste
5101704;Barra do Bugres;-15.0702;-57.1878;MT;34966;Centro-Oeste
3505351;Barra do Chapéu;-24.4722;-49.0238;SP;5724;Sudeste
2902906;Barra do Choça;-14.8654;-40.5791;BA;31603;Nordeste
2101608;Barra do Corda;-5.49682;-45.2485;MA;88212;Nordeste
5101803;Barra do Garças;-15.8804;-52.264;MT;61012;Centro-Oeste
4301859;Barra do Guarita;-27.1927;-53.7109;RS;3248;Sul
4102703;Barra do Jacaré;-23.116;-50.1842;PR;2781;Sul
2903003;Barra do Mendes;-11.81;-42.059;BA;13865;Nordeste
1703073;Barra do Ouro;-7.69593;-47.6776;TO;4591;Norte
3300308;Barra do Piraí;-22.4715;-43.8269;RJ;100374;Sudeste
4301875;Barra do Quaraí;-30.2029;-57.5497;RS;4215;Sul
4301909;Barra do Ribeiro;-30.2939;-51.3014;RS;13491;Sul
4301925;Barra do Rio Azul;-27.4069;-52.4084;RS;1690;Sul
2903102;Barra do Rocha;-14.2;-39.5991;BA;5714;Nordeste
3505401;Barra do Turvo;-24.759;-48.5013;SP;7659;Sudeste
2800605;Barra dos Coqueiros;-10.8996;-37.0323;SE;30407;Nordeste
4301958;Barra Funda;-27.9205;-53.0391;RS;2539;Sul
3105707;Barra Longa;-20.2869;-43.0402;MG;5131;Sudeste
3300407;Barra Mansa;-22.5481;-44.1752;RJ;184412;Sudeste
4202107;Barra Velha;-26.637;-48.6933;SC;29168;Sul
4102604;Barracão;-26.2502;-53.6324;PR;10275;Sul
4301800;Barracão;-27.6739;-51.4585;RS;5275;Sul
2201200;Barras;-4.24468;-42.2922;PI;47066;Nordeste
2301950;Barreira;-4.28921;-38.6429;CE;22425;Nordeste
2903201;Barreiras;-12.1439;-44.9968;BA;155439;Nordeste
2201309;Barreiras do Piauí;-9.9296;-45.4702;PI;3348;Nordeste
1300508;Barreirinha;-2.79886;-57.0679;AM;32041;Norte
2101707;Barreirinhas;-2.75863;-42.8232;MA;62528;Nordeste
2601409;Barreiros;-8.81605;-35.1832;PE;42659;Nordeste
3505500;Barretos;-20.5531;-48.5698;SP;122098;Sudeste
3505609;Barrinha;-21.1864;-48.1636;SP;32812;Sudeste
2302008;Barro;-7.17188;-38.7741;CE;22680;Nordeste
2903235;Barro Alto;-11.7605;-41.9054;BA;14931;Nordeste
5203203;Barro Alto;-14.9658;-48.9086;GO;11167;Centro-Oeste
2201408;Barro Duro;-5.81673;-42.5147;PI;7032;Nordeste
2903300;Barro Preto;-14.7948;-39.476;BA;5591;Nordeste
2903276;Barrocas;-11.5272;-39.0776;BA;15978;Nordeste
1703107;Barrolândia;-9.83404;-48.7252;TO;5632;Norte
2302057;Barroquinha;-3.02051;-41.1358;CE;15017;Nordeste
4302006;Barros Cassal;-29.0947;-52.5836;RS;11199;Sul
3105905;Barroso;-21.1907;-43.972;MG;20810;Sudeste
3505708;Barueri;-23.5057;-46.879;SP;274182;Sudeste
3505807;Bastos;-21.921;-50.7357;SP;20953;Sudeste
5001904;Bataguassu;-21.7159;-52.4221;MS;23024;Centro-Oeste
2201507;Batalha;-4.0223;-42.0787;PI;26857;Nordeste
2700706;Batalha;-9.6742;-37.133;AL;18232;Nordeste
3505906;Batatais;-20.8929;-47.5921;SP;62508;Sudeste
5002001;Batayporã;-22.2944;-53.2705;MS;11329;Centro-Oeste
2302107;Baturité;-4.32598;-38.8812;CE;35750;Nordeste
3506003;Bauru;-22.3246;-49.0871;SP;376818;Sudeste
2501807;Bayeux;-7.1238;-34.9293;PB;96880;Nordeste
3506102;Bebedouro;-20.9491;-48.4791;SP;77496;Sudeste
2302206;Beberibe;-4.17741;-38.1271;CE;53573;Nordeste
2302305;Bela Cruz;-3.04996;-40.1671;CE;32591;Nordeste
5002100;Bela Vista;-22.1073;-56.5263;MS;24629;Centro-Oeste
4102752;Bela Vista da Caroba;-25.8842;-53.6725;PR;3511;Sul
5203302;Bela Vista de Goiás;-16.9693;-48.9513;GO;29975;Centro-Oeste
3106002;Bela Vista de Minas;-19.8302;-43.0922;MG;10255;Sudeste
2101772;Bela Vista do Maranhão;-3.72618;-45.3075;MA;11209;Nordeste
4102802;Bela Vista do Paraíso;-22.9937;-51.1927;PR;15397;Sul
2201556;Bela Vista do Piauí;-7.98809;-41.8675;PI;4015;Nordeste
4202131;Bela Vista do Toldo;-26.2746;-50.4664;SC;6337;Sul
2101731;Belágua;-3.15485;-43.5122;MA;7469;Nordeste
1501402;Belém;-1.4554;-48.4898;PA;1492745;Norte
2501906;Belém;-6.74261;-35.5166;PB;17676;Nordeste
2700805;Belém;-9.57047;-36.4904;AL;4344;Nordeste
2601508;Belém de Maria;-8.62504;-35.8335;PE;12073;Nordeste
2502003;Belém do Brejo do Cruz;-6.18515;-37.5348;PB;7342;Nordeste
2201572;Belém do Piauí;-7.36652;-40.9688;PI;3566;Nordeste
2601607;Belém do São Francisco;-8.75046;-38.9623;PE;20729;Nordeste
3300456;Belford Roxo;-22.764;-43.3992;RJ;510906;Sudeste
3106101;Belmiro Braga;-21.944;-43.4084;MG;3429;Sudeste
2903409;Belmonte;-15.8608;-38.8758;BA;23328;Nordeste
4202156;Belmonte;-26.843;-53.5758;SC;2706;Sul
2903508;Belo Campo;-15.0334;-41.2652;BA;17211;Nordeste
3106200;Belo Horizonte;-19.9102;-43.9266;MG;2512070;Sudeste
2601706;Belo Jardim;-8.3313;-36.4258;PE;76439;Nordeste
2700904;Belo Monte;-9.82272;-37.277;AL;6704;Nordeste
3106309;Belo Oriente;-19.2199;-42.4828;MG;26700;Sudeste
3106408;Belo Vale;-20.4077;-44.0275;MG;7715;Sudeste
1501451;Belterra;-2.63609;-54.9374;PA;17732;Norte
2201606;Beneditinos;-5.45676;-42.3638;PI;10467;Nordeste
2101806;Benedito Leite;-7.21037;-44.5577;MA;5632;Nordeste
4202206;Benedito Novo;-26.781;-49.3593;SC;11652;Sul
1501501;Benevides;-1.36183;-48.2434;PA;62737;Norte
1300607;Benjamin Constant;-4.37768;-70.0342;AM;42984;Norte
4302055;Benjamin Constant do Sul;-27.5086;-52.5995;RS;1994;Sul
3506201;Bento de Abreu;-21.2686;-50.814;SP;2980;Sudeste
2401602;Bento Fernandes;-5.69906;-35.813;RN;5497;Nordeste
4302105;Bento Gonçalves;-29.1662;-51.5165;RS;120454;Sul
2101905;Bequimão;-2.44162;-44.7842;MA;21280;Nordeste
3106507;Berilo;-16.9567;-42.4606;MG;11932;Sudeste
3106655;Berizal;-15.61;-41.7432;MG;4735;Sudeste
2502052;Bernardino Batista;-6.44572;-38.5521;PB;3501;Nordeste
3506300;Bernardino de Campos;-23.0164;-49.4679;SP;11148;Sudeste
2101939;Bernardo do Mearim;-4.62666;-44.7608;MA;6043;Nordeste
1703206;Bernardo Sayão;-7.87481;-48.8893;TO;4459;Norte
3506359;Bertioga;-23.8486;-46.1396;SP;63249;Sudeste
2201705;Bertolínia;-7.63338;-43.9498;PI;5501;Nordeste
3106606;Bertópolis;-17.059;-40.58;MG;4604;Sudeste
1300631;Beruri;-3.89874;-61.3616;AM;19679;Norte
2601805;Betânia;-8.26787;-38.0345;PE;12719;Nordeste
2201739;Betânia do Piauí;-8.14376;-40.7989;PI;6205;Nordeste
3106705;Betim;-19.9668;-44.2008;MG;439340;Sudeste
2601904;Bezerros;-8.2328;-35.796;PE;60798;Nordeste
3106804;Bias Fortes;-21.602;-43.7574;MG;3379;Sudeste
3106903;Bicas;-21.7232;-43.056;MG;14494;Sudeste
4202305;Biguaçu;-27.496;-48.6598;SC;68481;Sul
3506409;Bilac;-21.404;-50.4746;SP;8034;Sudeste
3107000;Biquinhas;-18.7754;-45.4974;MG;2515;Sudeste
3506508;Birigui;-21.291;-50.3432;SP;123638;Sudeste
3506607;Biritiba-Mirim;-23.5698;-46.0407;SP;32598;Sudeste
2903607;Biritinga;-11.6072;-38.8051;BA;15979;Nordeste
4102901;Bituruna;-26.1607;-51.5518;PR;16389;Sul
4202404;Blumenau;-26.9155;-49.0709;SC;357199;Sul
3107109;Boa Esperança;-21.0927;-45.5612;MG;40127;Sudeste
3201001;Boa Esperança;-18.5395;-40.3025;ES;15037;Sudeste
4103008;Boa Esperança;-24.2467;-52.7876;PR;4105;Sul
4103024;Boa Esperança do Iguaçu;-25.6324;-53.2108;PR;2503;Sul
3506706;Boa Esperança do Sul;-21.9918;-48.3906;SP;14923;Sudeste
2201770;Boa Hora;-4.41404;-42.1357;PI;6781;Nordeste
2903706;Boa Nova;-14.3598;-40.2064;BA;12633;Nordeste
2502102;Boa Ventura;-7.40982;-38.2113;PB;5366;Nordeste
4103040;Boa Ventura de São Roque;-24.8688;-51.6276;PR;6387;Sul
2302404;Boa Viagem;-5.11258;-39.7337;CE;54470;Nordeste
1400100;Boa Vista;2.82384;-60.6753;RR;399213;Centro-Oeste
2502151;Boa Vista;-7.26365;-36.2357;PB;7051;Nordeste
4103057;Boa Vista da Aparecida;-25.4308;-53.4117;PR;7591;Sul
4302154;Boa Vista das Missões;-27.6671;-53.3102;RS;2098;Sul
4302204;Boa Vista do Buricá;-27.6693;-54.1082;RS;6712;Sul
4302220;Boa Vista do Cadeado;-28.5791;-53.8108;RS;2470;Sul
2101970;Boa Vista do Gurupi;-1.77614;-46.3002;MA;9287;Nordeste
4302238;Boa Vista do Incra;-28.8185;-53.391;RS;2603;Sul
1300680;Boa Vista do Ramos;-2.97409;-57.5873;AM;19207;Norte
4302253;Boa Vista do Sul;-29.3544;-51.6687;RS;2783;Sul
2903805;Boa Vista do Tupim;-12.6498;-40.6064;BA;18576;Nordeste
2701001;Boca da Mata;-9.64308;-36.2125;AL;27281;Nordeste
1300706;Boca do Acre;-8.74232;-67.3919;AM;34308;Norte
2201804;Bocaina;-6.94124;-41.3168;PI;4500;Nordeste
3506805;Bocaina;-22.1365;-48.523;SP;12329;Sudeste
3107208;Bocaina de Minas;-22.1697;-44.3972;MG;5090;Sudeste
4202438;Bocaina do Sul;-27.7455;-49.9423;SC;3474;Sul
3107307;Bocaiúva;-17.1135;-43.8104;MG;49979;Sudeste
4103107;Bocaiúva do Sul;-25.2066;-49.1141;PR;12944;Sul
2401651;Bodó;-5.98027;-36.4167;RN;2223;Nordeste
2602001;Bodocó;-7.77759;-39.9338;PE;38146;Nordeste
5002159;Bodoquena;-20.537;-56.7127;MS;7875;Centro-Oeste
3506904;Bofete;-23.1055;-48.2582;SP;11730;Sudeste
3507001;Boituva;-23.2855;-47.6786;SP;60997;Sudeste
2602100;Bom Conselho;-9.16919;-36.6857;PE;48554;Nordeste
3107406;Bom Despacho;-19.7386;-45.2622;MG;50605;Sudeste
2102002;Bom Jardim;-3.54129;-45.606;MA;41630;Nordeste
2602209;Bom Jardim;-7.79695;-35.5784;PE;39184;Nordeste
3300506;Bom Jardim;-22.1545;-42.4251;RJ;27446;Sudeste
4202503;Bom Jardim da Serra;-28.3377;-49.6373;SC;4743;Sul
5203401;Bom Jardim de Goiás;-16.2063;-52.1728;GO;8841;Centro-Oeste
3107505;Bom Jardim de Minas;-21.9479;-44.1885;MG;6474;Sudeste
2201903;Bom Jesus;-9.07124;-44.359;PI;25179;Nordeste
2401701;Bom Jesus;-5.98648;-35.5792;RN;10210;Nordeste
2502201;Bom Jesus;-6.81601;-38.6453;PB;2561;Nordeste
4202537;Bom Jesus;-26.7326;-52.3919;SC;3010;Sul
4302303;Bom Jesus;-28.6697;-50.4295;RS;11349;Sul
2903904;Bom Jesus da Lapa;-13.2506;-43.4108;BA;69148;Nordeste
3107604;Bom Jesus da Penha;-21.0148;-46.5174;MG;4217;Sudeste
2903953;Bom Jesus da Serra;-14.3663;-40.5126;BA;9880;Nordeste
2102036;Bom Jesus das Selvas;-4.47638;-46.8641;MA;34028;Nordeste
5203500;Bom Jesus de Goiás;-18.2173;-49.74;GO;25216;Centro-Oeste
3107703;Bom Jesus do Amparo;-19.7054;-43.4782;MG;6083;Sudeste
5101852;Bom Jesus do Araguaia;-12.1706;-51.5032;MT;6580;Centro-Oeste
3107802;Bom Jesus do Galho;-19.836;-42.3165;MG;14935;Sudeste
3300605;Bom Jesus do Itabapoana;-21.1449;-41.6822;RJ;37096;Sudeste
3201100;Bom Jesus do Norte;-21.1173;-41.6731;ES;9936;Sudeste
4202578;Bom Jesus do Oeste;-26.6927;-53.0967;SC;2142;Sul
4103156;Bom Jesus do Sul;-26.1958;-53.5955;PR;3541;Sul
1501576;Bom Jesus do Tocantins;-5.0424;-48.6047;PA;16981;Norte
1703305;Bom Jesus do Tocantins;-8.96306;-48.165;TO;4894;Norte
3507100;Bom Jesus dos Perdões;-23.1356;-46.4675;SP;25448;Sudeste
2102077;Bom Lugar;-4.37311;-45.0326;MA;16294;Nordeste
4302352;Bom Princípio;-29.4856;-51.3548;RS;14055;Sul
2201919;Bom Princípio do Piauí;-3.19631;-41.6403;PI;5630;Nordeste
4302378;Bom Progresso;-27.5399;-53.8716;RS;1942;Sul
3107901;Bom Repouso;-22.4675;-46.144;MG;10547;Sudeste
4202602;Bom Retiro;-27.799;-49.487;SC;9966;Sul
4302402;Bom Retiro do Sul;-29.6071;-51.9456;RS;12328;Sul
2502300;Bom Sucesso;-6.44176;-37.9234;PB;4975;Nordeste
3108008;Bom Sucesso;-21.0329;-44.7537;MG;17603;Sudeste
4103206;Bom Sucesso;-23.7063;-51.7671;PR;7032;Sul
3507159;Bom Sucesso de Itararé;-24.3155;-49.1451;SP;3954;Sudeste
4103222;Bom Sucesso do Sul;-26.0731;-52.8353;PR;3264;Sul
4202453;Bombinhas;-27.1382;-48.5146;SC;19769;Sul
1400159;Bonfim;3.36161;-59.8333;RR;12409;Centro-Oeste
3108107;Bonfim;-20.3302;-44.2366;MG;6868;Sudeste
2201929;Bonfim do Piauí;-9.1605;-42.8865;PI;5670;Nordeste
5203559;Bonfinópolis;-16.6173;-48.9616;GO;9706;Centro-Oeste
3108206;Bonfinópolis de Minas;-16.568;-45.9839;MG;5493;Sudeste
2904001;Boninal;-12.7069;-41.8286;BA;14368;Nordeste
1501600;Bonito;-1.36745;-47.3066;PA;16286;Norte
2602308;Bonito;-8.47163;-35.7292;PE;38134;Nordeste
2904050;Bonito;-11.9668;-41.2647;BA;16764;Nordeste
5002209;Bonito;-21.1261;-56.4836;MS;21976;Centro-Oeste
3108255;Bonito de Minas;-15.3231;-44.7543;MG;11230;Sudeste
2502409;Bonito de Santa Fé;-7.31341;-38.5133;PB;11917;Nordeste
5203575;Bonópolis;-13.6329;-49.8106;GO;4405;Centro-Oeste
2502508;Boqueirão;-7.487;-36.1309;PB;17804;Nordeste
4302451;Boqueirão do Leão;-29.3046;-52.4284;RS;7714;Sul
2201945;Boqueirão do Piauí;-4.48181;-42.1212;PI;6407;Nordeste
2800670;Boquim;-11.1397;-37.6195;SE;26816;Nordeste
2904100;Boquira;-12.8205;-42.7324;BA;21508;Nordeste
3507209;Borá;-22.2696;-50.5409;SP;837;Sudeste
3507308;Boracéia;-22.1926;-48.7808;SP;4823;Sudeste
1300805;Borba;-4.39154;-59.5874;AM;41161;Norte
2502706;Borborema;-6.80199;-35.6187;PB;5263;Nordeste
3507407;Borborema;-21.6214;-49.0741;SP;16046;Sudeste
3108305;Borda da Mata;-22.2707;-46.1653;MG;19412;Sudeste
3507456;Borebi;-22.5728;-48.9707;SP;2653;Sudeste
4103305;Borrazópolis;-23.9366;-51.5875;PR;6592;Sul
4302501;Bossoroca;-28.7291;-54.9035;RS;6279;Sul
3108404;Botelhos;-21.6412;-46.391;MG;14971;Sudeste
3507506;Botucatu;-22.8837;-48.4437;SP;146497;Sudeste
3108503;Botumirim;-16.8657;-43.0086;MG;6319;Sudeste
2904209;Botuporã;-13.3772;-42.5163;BA;10211;Nordeste
4202701;Botuverá;-27.2007;-49.0689;SC;5246;Sul
4302584;Bozano;-28.3659;-53.772;RS;2123;Sul
4202800;Braço do Norte;-28.2681;-49.1701;SC;33450;Sul
4202859;Braço do Trombudo;-27.3586;-49.8821;SC;3743;Sul
4302600;Braga;-27.6173;-53.7405;RS;3353;Sul
1501709;Bragança;-1.06126;-46.7826;PA;127686;Norte
3507605;Bragança Paulista;-22.9527;-46.5419;SP;168668;Sudeste
4103354;Braganey;-24.8173;-53.1218;PR;5427;Sul
2701100;Branquinha;-9.23342;-36.0162;AL;10494;Nordeste
3108701;Brás Pires;-20.8419;-43.2406;MG;4333;Sudeste
1501725;Brasil Novo;-3.29792;-52.534;PA;15086;Norte
5002308;Brasilândia;-21.2544;-52.0365;MS;11872;Centro-Oeste
3108552;Brasilândia de Minas;-16.9999;-46.0081;MG;16538;Sudeste
4103370;Brasilândia do Sul;-24.1978;-53.5275;PR;2651;Sul
1703602;Brasilândia do Tocantins;-8.38918;-48.4822;TO;2201;Norte
1200104;Brasiléia;-10.995;-68.7497;AC;26278;Norte
2201960;Brasileira;-4.1337;-41.7859;PI;8329;Nordeste
5300108;Brasília;-15.7795;-47.9297;DF;3015268;Centro-Oeste
3108602;Brasília de Minas;-16.2104;-44.4299;MG;32347;Sudeste
5101902;Brasnorte;-12.1474;-57.9833;MT;19695;Centro-Oeste
3507704;Braúna;-21.499;-50.3175;SP;5686;Sudeste
3108800;Braúnas;-19.0562;-42.7099;MG;4801;Sudeste
5203609;Brazabrantes;-16.4281;-49.3863;GO;3703;Centro-Oeste
3108909;Brazópolis;-22.4743;-45.6166;MG;14459;Sudeste
2602407;Brejão;-9.02915;-36.566;PE;8993;Nordeste
3201159;Brejetuba;-20.1395;-41.2954;ES;12404;Sudeste
2401800;Brejinho;-6.18566;-35.3591;RN;12699;Nordeste
2602506;Brejinho;-7.34694;-37.2865;PE;7487;Nordeste
1703701;Brejinho de Nazaré;-11.0058;-48.5683;TO;5497;Norte
2102101;Brejo;-3.67796;-42.7527;MA;36397;Nordeste
3507753;Brejo Alegre;-21.1651;-50.1861;SP;2865;Sudeste
2602605;Brejo da Madre de Deus;-8.14933;-36.3741;PE;50742;Nordeste
2102150;Brejo de Areia;-4.334;-45.581;MA;9188;Nordeste
2502805;Brejo do Cruz;-6.34185;-37.4943;PB;14122;Nordeste
2201988;Brejo do Piauí;-8.20314;-42.8229;PI;3875;Nordeste
2502904;Brejo dos Santos;-6.37065;-37.8253;PB;6449;Nordeste
2800704;Brejo Grande;-10.4297;-36.4611;SE;8309;Nordeste
1501758;Brejo Grande do Araguaia;-5.69822;-48.4103;PA;7380;Norte
2302503;Brejo Santo;-7.48469;-38.9799;CE;49477;Nordeste
2904308;Brejões;-13.1039;-39.7988;BA;14295;Nordeste
2904407;Brejolândia;-12.4815;-43.9679;BA;10557;Nordeste
1501782;Breu Branco;-3.77191;-49.5735;PA;66046;Norte
1501808;Breves;-1.68036;-50.4791;PA;102701;Norte
5203807;Britânia;-15.2428;-51.1602;GO;5779;Centro-Oeste
4302659;Brochier;-29.5501;-51.5945;RS;5074;Sul
3507803;Brodowski;-20.9845;-47.6572;SP;24939;Sudeste
3507902;Brotas;-22.2795;-48.1251;SP;24403;Sudeste
2904506;Brotas de Macaúbas;-11.9915;-42.6326;BA;10231;Nordeste
3109006;Brumadinho;-20.151;-44.2007;MG;40103;Sudeste
2904605;Brumado;-14.2021;-41.6696;BA;67195;Nordeste
4202875;Brunópolis;-27.3058;-50.8684;SC;2420;Sul
4202909;Brusque;-27.0977;-48.9107;SC;134723;Sul
3109105;Bueno Brandão;-22.4383;-46.3491;MG;11001;Sudeste
3109204;Buenópolis;-17.8744;-44.1775;MG;10365;Sudeste
2602704;Buenos Aires;-7.72449;-35.3182;PE;13155;Nordeste
2904704;Buerarema;-14.9595;-39.3028;BA;18349;Nordeste
3109253;Bugre;-19.4231;-42.2552;MG;3982;Sudeste
2602803;Buíque;-8.61954;-37.1606;PE;58378;Nordeste
1200138;Bujari;-9.81528;-67.955;AC;10266;Norte
1501907;Bujaru;-1.51762;-48.0381;PA;29132;Norte
3508009;Buri;-23.7977;-48.5958;SP;19878;Sudeste
3508108;Buritama;-21.0661;-50.1475;SP;17144;Sudeste
2102200;Buriti;-3.94169;-42.9179;MA;28678;Nordeste
5203906;Buriti Alegre;-18.1378;-49.0404;GO;9459;Centro-Oeste
2102309;Buriti Bravo;-5.83239;-43.8353;MA;23884;Nordeste
5203939;Buriti de Goiás;-16.1792;-50.4302;GO;2488;Centro-Oeste
1703800;Buriti do Tocantins;-5.31448;-48.2271;TO;11348;Norte
2202000;Buriti dos Lopes;-3.18259;-41.8695;PI;19781;Nordeste
2202026;Buriti dos Montes;-5.30584;-41.0933;PI;8244;Nordeste
2102325;Buriticupu;-4.32375;-46.4409;MA;72358;Nordeste
5203962;Buritinópolis;-14.4772;-46.4076;GO;3292;Centro-Oeste
2904753;Buritirama;-10.7171;-43.6302;BA;21174;Nordeste
2102358;Buritirana;-5.59823;-47.0131;MA;15430;Nordeste
1100452;Buritis;-10.1943;-63.8324;RO;39654;Norte
3109303;Buritis;-15.6218;-46.4221;MG;24841;Sudeste
3508207;Buritizal;-20.1911;-47.7096;SP;4481;Sudeste
3109402;Buritizeiro;-17.3656;-44.9606;MG;28056;Sudeste
4302709;Butiá;-30.1179;-51.9601;RS;20941;Sul
1300839;Caapiranga;-3.31537;-61.2206;AM;13081;Norte
2503001;Caaporã;-7.51351;-34.9055;PB;21828;Nordeste
5002407;Caarapó;-22.6368;-54.8209;MS;30174;Centro-Oeste
2904803;Caatiba;-14.9699;-40.4092;BA;6758;Nordeste
2503100;Cabaceiras;-7.48899;-36.287;PB;5611;Nordeste
2904852;Cabaceiras do Paraguaçu;-12.5317;-39.1902;BA;18807;Nordeste
3109451;Cabeceira Grande;-16.0335;-47.0862;MG;6949;Sudeste
5204003;Cabeceiras;-15.7995;-46.9265;GO;7993;Centro-Oeste
2202059;Cabeceiras do Piauí;-4.4773;-42.3069;PI;10586;Nordeste
2503209;Cabedelo;-6.98731;-34.8284;PB;67736;Nordeste
1100031;Cabixi;-13.4945;-60.552;RO;5312;Norte
2602902;Cabo de Santo Agostinho;-8.28218;-35.0253;PE;207048;Nordeste
3300704;Cabo Frio;-22.8894;-42.0286;RJ;226525;Sudeste
3109501;Cabo Verde;-21.4699;-46.3919;MG;14075;Sudeste
3508306;Cabrália Paulista;-22.4576;-49.3393;SP;4264;Sudeste
3508405;Cabreúva;-23.3053;-47.1362;SP;49707;Sudeste
2603009;Cabrobó;-8.50548;-39.3094;PE;34221;Nordeste
4203006;Caçador;-26.7757;-51.012;SC;78595;Sul
3508504;Caçapava;-23.0992;-45.7076;SP;94263;Sudeste
4302808;Caçapava do Sul;-30.5144;-53.4827;RS;33624;Sul
1100601;Cacaulândia;-10.349;-62.9043;RO;6230;Norte
4302907;Cacequi;-29.8883;-54.822;RS;12561;Sul
5102504;Cáceres;-16.0764;-57.6818;MT;94376;Centro-Oeste
2904902;Cachoeira;-12.5994;-38.9587;BA;33470;Nordeste
5204102;Cachoeira Alta;-18.7618;-50.9432;GO;12484;Centro-Oeste
3109600;Cachoeira da Prata;-19.521;-44.4544;MG;3603;Sudeste
5204201;Cachoeira de Goiás;-16.6635;-50.646;GO;1351;Centro-Oeste
3109709;Cachoeira de Minas;-22.3511;-45.7809;MG;11547;Sudeste
3102704;Cachoeira de Pajeú;-15.9688;-41.4948;MG;9412;Sudeste
1502004;Cachoeira do Arari;-1.01226;-48.9503;PA;23767;Norte
1501956;Cachoeira do Piriá;-1.75974;-46.5459;PA;33900;Norte
4303004;Cachoeira do Sul;-30.033;-52.8928;RS;82201;Sul
2503308;Cachoeira dos Índios;-6.91353;-38.676;PB;10244;Nordeste
3109808;Cachoeira Dourada;-18.5161;-49.5039;MG;2692;Sudeste
5204250;Cachoeira Dourada;-18.4859;-49.4766;GO;8067;Centro-Oeste
2102374;Cachoeira Grande;-2.93074;-44.0528;MA;9431;Nordeste
3508603;Cachoeira Paulista;-22.6665;-45.0154;SP;33327;Sudeste
3300803;Cachoeiras de Macacu;-22.4658;-42.6523;RJ;58937;Sudeste
1703826;Cachoeirinha;-6.1156;-47.9234;TO;2275;Norte
2603108;Cachoeirinha;-8.48668;-36.2402;PE;20380;Nordeste
4303103;Cachoeirinha;-29.9472;-51.1016;RS;130293;Sul
3201209;Cachoeiro de Itapemirim;-20.8462;-41.1198;ES;208972;Sudeste
2503407;Cacimba de Areia;-7.12128;-37.1563;PB;3682;Nordeste
2503506;Cacimba de Dentro;-6.6386;-35.7778;PB;17187;Nordeste
2503555;Cacimbas;-7.20721;-37.0604;PB;7173;Nordeste
2701209;Cacimbinhas;-9.40121;-36.9911;AL;10858;Nordeste
4303202;Cacique Doble;-27.767;-51.6597;RS;5065;Sul
1100049;Cacoal;-11.4343;-61.4562;RO;85359;Norte
3508702;Caconde;-21.528;-46.6437;SP;18985;Sudeste
5204300;Caçu;-18.5594;-51.1328;GO;16009;Centro-Oeste
2905008;Caculé;-14.5003;-42.2229;BA;23170;Nordeste
2905107;Caém;-11.0677;-40.432;BA;9213;Nordeste
3109907;Caetanópolis;-19.2971;-44.4189;MG;11624;Sudeste
2905156;Caetanos;-14.3347;-40.9175;BA;14542;Nordeste
3110004;Caeté;-19.8826;-43.6704;MG;44718;Sudeste
2603207;Caetés;-8.7803;-36.6268;PE;28739;Nordeste
2905206;Caetité;-14.0684;-42.4861;BA;50975;Nordeste
2905305;Cafarnaum;-11.6914;-41.4688;BA;18437;Nordeste
4103404;Cafeara;-22.789;-51.7142;PR;2934;Sul
3508801;Cafelândia;-21.8031;-49.6092;SP;17767;Sudeste
4103453;Cafelândia;-24.6189;-53.3207;PR;18120;Sul
4103479;Cafezal do Sul;-23.9005;-53.5124;PR;4044;Sul
3508900;Caiabu;-22.0127;-51.2394;SP;4191;Sudeste
3110103;Caiana;-20.6956;-41.9292;MG;5496;Sudeste
5204409;Caiapônia;-16.9539;-51.8091;GO;18913;Centro-Oeste
4303301;Caibaté;-28.2905;-54.6454;RS;4846;Sul
4203105;Caibi;-27.0741;-53.2458;SC;6148;Sul
2503605;Caiçara;-6.62115;-35.4581;PB;7201;Nordeste
4303400;Caiçara;-27.2791;-53.4257;RS;4743;Sul
2401859;Caiçara do Norte;-5.07091;-36.0717;RN;6549;Nordeste
2401909;Caiçara do Rio do Vento;-5.76541;-35.9938;RN;3684;Nordeste
2402006;Caicó;-6.45441;-37.1067;RN;67952;Nordeste
3509007;Caieiras;-23.3607;-46.7397;SP;101470;Sudeste
2905404;Cairu;-13.4904;-39.0465;BA;18176;Nordeste
3509106;Caiuá;-21.8322;-51.9969;SP;5874;Sudeste
3509205;Cajamar;-23.355;-46.8781;SP;76801;Sudeste
2102408;Cajapió;-2.87326;-44.6741;MA;11177;Nordeste
2102507;Cajari;-3.32742;-45.0145;MA;19379;Nordeste
3509254;Cajati;-24.7324;-48.1223;SP;28549;Sudeste
2503704;Cajazeiras;-6.88004;-38.5577;PB;61993;Nordeste
2202075;Cajazeiras do Piauí;-6.79667;-42.3903;PI;3559;Nordeste
2503753;Cajazeirinhas;-6.96016;-37.8009;PB;3193;Nordeste
3509304;Cajobi;-20.8773;-48.8063;SP;10542;Sudeste
2701308;Cajueiro;-9.3994;-36.1559;AL;21264;Nordeste
2202083;Cajueiro da Praia;-2.93111;-41.3408;PI;7642;Nordeste
3110202;Cajuri;-20.7903;-42.7925;MG;3987;Sudeste
3509403;Cajuru;-21.2749;-47.303;SP;26167;Sudeste
2603306;Calçado;-8.73108;-36.3366;PE;11053;Nordeste
1600204;Calçoene;2.50475;-50.9512;AP;11117;Norte
3110301;Caldas;-21.9183;-46.3843;MG;14480;Sudeste
2503803;Caldas Brandão;-7.1025;-35.3272;PB;6014;Nordeste
5204508;Caldas Novas;-17.7441;-48.6246;GO;91162;Centro-Oeste
5204557;Caldazinha;-16.7117;-49.0013;GO;3804;Centro-Oeste
2905503;Caldeirão Grande;-11.0208;-40.2956;BA;13327;Nordeste
2202091;Caldeirão Grande do Piauí;-7.3314;-40.6366;PI;5776;Nordeste
4103503;Califórnia;-23.6566;-51.3574;PR;8570;Sul
4203154;Calmon;-26.5942;-51.095;SC;3346;Sul
2603405;Calumbi;-7.93551;-38.1482;PE;5750;Nordeste
2905602;Camacan;-15.4142;-39.4919;BA;31988;Nordeste
2905701;Camaçari;-12.6996;-38.3263;BA;299132;Nordeste
3110400;Camacho;-20.6294;-45.1593;MG;2901;Sudeste
2503902;Camalaú;-7.88503;-36.8242;PB;6013;Nordeste
2905800;Camamu;-13.9398;-39.1071;BA;35316;Nordeste
3110509;Camanducaia;-22.7515;-46.1494;MG;21770;Sudeste
5002605;Camapuã;-19.5347;-54.0431;MS;13711;Centro-Oeste
4303509;Camaquã;-30.8489;-51.8043;RS;66261;Sul
2603454;Camaragibe;-8.02351;-34.9782;PE;157828;Nordeste
4303558;Camargo;-28.588;-52.2003;RS;2733;Sul
4103602;Cambará;-23.0423;-50.0753;PR;25360;Sul
4303608;Cambará do Sul;-29.0474;-50.1465;RS;6431;Sul
4103701;Cambé;-23.2766;-51.2798;PR;106533;Sul
4103800;Cambira;-23.589;-51.5792;PR;7865;Sul
4203204;Camboriú;-27.0241;-48.6503;SC;82989;Sul
3300902;Cambuci;-21.5691;-41.9187;RJ;15505;Sudeste
3110608;Cambuí;-22.6115;-46.0572;MG;29551;Sudeste
3110707;Cambuquira;-21.854;-45.2896;MG;12814;Sudeste
1502103;Cametá;-2.24295;-49.4979;PA;137890;Norte
2302602;Camocim;-2.9005;-40.8544;CE;63661;Nordeste
2603504;Camocim de São Félix;-8.35865;-35.7653;PE;18765;Nordeste
3110806;Campanário;-18.2427;-41.7355;MG;3721;Sudeste
3110905;Campanha;-21.836;-45.4004;MG;16665;Sudeste
2701357;Campestre;-8.84723;-35.5685;AL;6936;Nordeste
3111002;Campestre;-21.7079;-46.2381;MG;21055;Sudeste
4303673;Campestre da Serra;-28.7926;-51.0941;RS;3388;Sul
5204607;Campestre de Goiás;-16.7624;-49.695;GO;3630;Centro-Oeste
2102556;Campestre do Maranhão;-6.17075;-47.3625;MA;14374;Nordeste
4103909;Campina da Lagoa;-24.5893;-52.7976;PR;14202;Sul
4303707;Campina das Missões;-27.9888;-54.8416;RS;5474;Sul
3509452;Campina do Monte Alegre;-23.5895;-48.4758;SP;6024;Sudeste
4103958;Campina do Simão;-25.0802;-51.8237;PR;3887;Sul
2504009;Campina Grande;-7.22196;-35.8731;PB;409731;Nordeste
4104006;Campina Grande do Sul;-25.3044;-49.0551;PR;43288;Sul
3111101;Campina Verde;-19.5382;-49.4862;MG;19745;Sudeste
5204656;Campinaçu;-13.787;-48.5704;GO;3640;Centro-Oeste
5102603;Campinápolis;-14.5162;-52.893;MT;15980;Centro-Oeste
3509502;Campinas;-22.9053;-47.0659;SP;1204073;Sudeste
2202109;Campinas do Piauí;-7.6593;-41.8775;PI;5613;Nordeste
4303806;Campinas do Sul;-27.7174;-52.6248;RS;5454;Sul
5204706;Campinorte;-14.3137;-49.1511;GO;12626;Centro-Oeste
2701407;Campo Alegre;-9.78451;-36.3525;AL;57063;Nordeste
4203303;Campo Alegre;-26.195;-49.2676;SC;11978;Sul
5204805;Campo Alegre de Goiás;-17.6363;-47.7768;GO;7589;Centro-Oeste
2905909;Campo Alegre de Lourdes;-9.52221;-43.0126;BA;28798;Nordeste
2202117;Campo Alegre do Fidalgo;-8.38236;-41.8344;PI;5045;Nordeste
3111150;Campo Azul;-16.5028;-44.8096;MG;3817;Sudeste
3111200;Campo Belo;-20.8932;-45.2699;MG;54029;Sudeste
4203402;Campo Belo do Sul;-27.8975;-50.7595;SC;7016;Sul
4303905;Campo Bom;-29.6747;-51.0606;RS;66712;Sul
4104055;Campo Bonito;-25.0294;-52.9939;PR;3833;Sul
2801009;Campo do Brito;-10.7392;-37.4954;SE;18109;Nordeste
3111309;Campo do Meio;-21.1127;-45.8273;MG;11655;Sudeste
4104105;Campo do Tenente;-25.98;-49.6844;PR;7971;Sul
4203501;Campo Erê;-26.3931;-53.0856;SC;8526;Sul
3111408;Campo Florido;-19.7631;-48.5716;MG;8151;Sudeste
2906006;Campo Formoso;-10.5105;-40.32;BA;71206;Nordeste
#N/D;#N/D;#N/D;#N/D;RN;9655;Nordeste
2701506;Campo Grande;-9.95542;-36.7926;AL;9558;Nordeste
5002704;Campo Grande;-20.4486;-54.6295;MS;895982;Centro-Oeste
2202133;Campo Grande do Piauí;-7.12827;-41.0315;PI;5943;Nordeste
4104204;Campo Largo;-25.4525;-49.529;PR;132002;Sul
2202174;Campo Largo do Piauí;-3.80441;-42.64;PI;7279;Nordeste
5204854;Campo Limpo de Goiás;-16.2971;-49.0895;GO;7789;Centro-Oeste
3509601;Campo Limpo Paulista;-23.2078;-46.7889;SP;84650;Sudeste
4104253;Campo Magro;-25.3687;-49.4501;PR;29318;Sul
2202208;Campo Maior;-4.8217;-42.1641;PI;46833;Nordeste
4104303;Campo Mourão;-24.0463;-52.378;PR;94859;Sul
4304002;Campo Novo;-27.6792;-53.8052;RS;4484;Sul
1100700;Campo Novo de Rondônia;-10.5712;-63.6266;RO;14139;Norte
5102637;Campo Novo do Parecis;-13.6587;-57.8907;MT;35360;Centro-Oeste
2402105;Campo Redondo;-6.23829;-36.1888;RN;11217;Nordeste
5102678;Campo Verde;-15.545;-55.1626;MT;44041;Centro-Oeste
3111507;Campos Altos;-19.6914;-46.1725;MG;15461;Sudeste
5204904;Campos Belos;-13.035;-46.7681;GO;19887;Centro-Oeste
4304101;Campos Borges;-28.8871;-53.0008;RS;3320;Sul
5102686;Campos de Júlio;-13.7242;-59.2858;MT;6891;Centro-Oeste
3509700;Campos do Jordão;-22.7296;-45.5833;SP;52088;Sudeste
3301009;Campos dos Goytacazes;-21.7622;-41.3181;RJ;507548;Sudeste
3111606;Campos Gerais;-21.237;-45.7569;MG;28774;Sudeste
1703842;Campos Lindos;-7.98956;-46.8645;TO;10116;Norte
4203600;Campos Novos;-27.4002;-51.2276;SC;36244;Sul
3509809;Campos Novos Paulista;-22.602;-49.9987;SP;4965;Sudeste
2302701;Campos Sales;-7.06761;-40.3687;CE;27426;Nordeste
5204953;Campos Verdes;-14.2442;-49.6528;GO;2141;Centro-Oeste
2603603;Camutanga;-7.40545;-35.2664;PE;8551;Nordeste
3111903;Cana Verde;-21.0232;-45.1801;MG;5603;Sudeste
3111705;Canaã;-20.6869;-42.6167;MG;4563;Sudeste
1502152;Canaã dos Carajás;-6.49659;-49.8776;PA;37085;Norte
5102694;Canabrava do Norte;-11.0556;-51.8209;MT;4743;Centro-Oeste
3509908;Cananéia;-25.0144;-47.9341;SP;12540;Sudeste
2701605;Canapi;-9.11932;-37.5967;AL;17722;Nordeste
2906105;Canápolis;-13.0725;-44.201;BA;9711;Nordeste
3111804;Canápolis;-18.7212;-49.2035;MG;12150;Sudeste
2906204;Canarana;-11.6858;-41.7677;BA;26176;Nordeste
5102702;Canarana;-13.5515;-52.2705;MT;21579;Centro-Oeste
3509957;Canas;-22.7003;-45.0521;SP;5138;Sudeste
2202251;Canavieira;-7.68821;-43.7233;PI;3950;Nordeste
2906303;Canavieiras;-15.6722;-38.9536;BA;31099;Nordeste
2906402;Candeal;-11.8049;-39.1203;BA;8258;Nordeste
2906501;Candeias;-12.6716;-38.5472;BA;87076;Nordeste
3112000;Candeias;-20.7692;-45.2765;MG;14886;Sudeste
1100809;Candeias do Jamari;-8.7907;-63.7005;RO;26693;Norte
4304200;Candelária;-29.6684;-52.7895;RS;31365;Sul
2906600;Candiba;-14.4097;-42.8667;BA;14319;Nordeste
4104402;Cândido de Abreu;-24.5649;-51.3372;PR;15018;Sul
4304309;Cândido Godói;-27.9515;-54.7517;RS;6198;Sul
2102606;Cândido Mendes;-1.43265;-45.7161;MA;20178;Nordeste
3510005;Cândido Mota;-22.7471;-50.3873;SP;31280;Sudeste
3510104;Cândido Rodrigues;-21.3275;-48.6327;SP;2793;Sudeste
2906709;Cândido Sales;-15.4993;-41.2414;BA;25189;Nordeste
4304358;Candiota;-31.5516;-53.6773;RS;9584;Sul
4104428;Candói;-25.5758;-52.0409;PR;15979;Sul
4304408;Canela;-29.356;-50.8119;RS;44998;Sul
4203709;Canelinha;-27.2616;-48.7658;SC;12240;Sul
2402204;Canguaretama;-6.37193;-35.1281;RN;34276;Nordeste
4304507;Canguçu;-31.396;-52.6783;RS;56045;Sul
2801108;Canhoba;-10.1365;-36.9806;SE;4008;Nordeste
2603702;Canhotinho;-8.87652;-36.1979;PE;24804;Nordeste
2302800;Canindé;-4.35162;-39.3155;CE;76997;Nordeste
2801207;Canindé de São Francisco;-9.64882;-37.7923;SE;29900;Nordeste
3510153;Canitar;-23.004;-49.7839;SP;5216;Sudeste
4304606;Canoas;-29.9128;-51.1857;RS;346616;Sul
4203808;Canoinhas;-26.1766;-50.395;SC;54401;Sul
2906808;Cansanção;-10.6647;-39.4944;BA;34834;Nordeste
1400175;Cantá;2.60994;-60.6058;RR;18335;Centro-Oeste
3112059;Cantagalo;-18.5248;-42.6223;MG;4525;Sudeste
3301108;Cantagalo;-21.9797;-42.3664;RJ;20172;Sudeste
4104451;Cantagalo;-25.3734;-52.1198;PR;13317;Sul
2102705;Cantanhede;-3.63757;-44.383;MA;21995;Nordeste
2202307;Canto do Buriti;-8.1111;-42.9517;PI;21187;Nordeste
2906824;Canudos;-9.90014;-39.1471;BA;16668;Nordeste
4304614;Canudos do Vale;-29.3271;-52.2374;RS;1716;Sul
1300904;Canutama;-6.52582;-64.3953;AM;15629;Norte
1502202;Capanema;-1.20529;-47.1778;PA;69027;Norte
4104501;Capanema;-25.6691;-53.8055;PR;19124;Sul
4203253;Capão Alto;-27.9389;-50.5098;SC;2525;Sul
3510203;Capão Bonito;-24.0113;-48.3482;SP;47138;Sudeste
4304622;Capão Bonito do Sul;-28.1254;-51.3961;RS;1654;Sul
4304630;Capão da Canoa;-29.7642;-50.0282;RS;53049;Sul
4304655;Capão do Cipó;-28.9312;-54.5558;RS;3651;Sul
4304663;Capão do Leão;-31.7565;-52.4889;RS;25354;Sul
3112109;Caparaó;-20.5289;-41.9061;MG;5438;Sudeste
2701704;Capela;-9.41504;-36.0826;AL;17053;Nordeste
2801306;Capela;-10.5069;-37.0628;SE;34213;Nordeste
4304689;Capela de Santana;-29.6961;-51.328;RS;11940;Sul
3510302;Capela do Alto;-23.4685;-47.7388;SP;20706;Sudeste
2906857;Capela do Alto Alegre;-11.6658;-39.8349;BA;11637;Nordeste
3112208;Capela Nova;-20.9179;-43.622;MG;4653;Sudeste
3112307;Capelinha;-17.6888;-42.5147;MG;37784;Sudeste
3112406;Capetinga;-20.6163;-47.0571;MG;6920;Sudeste
2504033;Capim;-6.91624;-35.1673;PB;6523;Nordeste
3112505;Capim Branco;-19.5471;-44.1304;MG;9754;Sudeste
2906873;Capim Grosso;-11.3797;-40.0089;BA;30662;Nordeste
3112604;Capinópolis;-18.6862;-49.5706;MG;16173;Sudeste
4203907;Capinzal;-27.3473;-51.6057;SC;22848;Sul
2102754;Capinzal do Norte;-4.7236;-44.328;MA;10934;Nordeste
2302909;Capistrano;-4.45569;-38.9048;CE;17738;Nordeste
4304697;Capitão;-29.2674;-51.9853;RS;2757;Sul
3112653;Capitão Andrade;-19.0748;-41.8614;MG;5468;Sudeste
2202406;Capitão de Campos;-4.457;-41.944;PI;11417;Nordeste
3112703;Capitão Enéas;-16.3265;-43.7084;MG;15234;Sudeste
2202455;Capitão Gervásio Oliveira;-8.49655;-41.814;PI;4100;Nordeste
4104600;Capitão Leônidas Marques;-25.4816;-53.6112;PR;15780;Sul
1502301;Capitão Poço;-1.74785;-47.0629;PA;54303;Norte
3112802;Capitólio;-20.6164;-46.0493;MG;8632;Sudeste
3510401;Capivari;-22.9951;-47.5071;SP;55768;Sudeste
4203956;Capivari de Baixo;-28.4498;-48.9631;SC;24871;Sul
4304671;Capivari do Sul;-30.1383;-50.5152;RS;4660;Sul
1200179;Capixaba;-10.566;-67.686;AC;11733;Norte
2603801;Capoeiras;-8.73423;-36.6306;PE;20048;Nordeste
3112901;Caputira;-20.1703;-42.2683;MG;9298;Sudeste
4304713;Caraá;-29.7869;-50.4316;RS;8270;Sul
1400209;Caracaraí;1.82766;-61.1304;RR;21926;Centro-Oeste
2202505;Caracol;-9.27933;-43.329;PI;10916;Nordeste
5002803;Caracol;-22.011;-57.0277;MS;6116;Centro-Oeste
3510500;Caraguatatuba;-23.6125;-45.4125;SP;121532;Sudeste
3113008;Caraí;-17.1862;-41.7004;MG;23685;Sudeste
2906899;Caraíbas;-14.7177;-41.2603;BA;8951;Nordeste
4104659;Carambeí;-24.9152;-50.0986;PR;23415;Sul
3113107;Caranaíba;-20.8707;-43.7417;MG;3183;Sudeste
3113206;Carandaí;-20.9566;-43.811;MG;25501;Sudeste
3113305;Carangola;-20.7343;-42.0313;MG;33000;Sudeste
3300936;Carapebus;-22.1821;-41.663;RJ;16301;Sudeste
3510609;Carapicuíba;-23.5235;-46.8407;SP;400927;Sudeste
3113404;Caratinga;-19.7868;-42.1292;MG;92062;Sudeste
1301001;Carauari;-4.88161;-66.9086;AM;28294;Norte
2402303;Caraúbas;-5.78387;-37.5586;RN;20493;Nordeste
2504074;Caraúbas;-7.72049;-36.492;PB;4162;Nordeste
2202539;Caraúbas do Piauí;-3.47525;-41.8425;PI;5868;Nordeste
2906907;Caravelas;-17.7268;-39.2597;BA;22016;Nordeste
4304705;Carazinho;-28.2958;-52.7933;RS;62110;Sul
3113503;Carbonita;-17.5255;-43.0137;MG;9405;Sudeste
2907004;Cardeal da Silva;-11.9472;-37.9469;BA;9295;Nordeste
3510708;Cardoso;-20.08;-49.9183;SP;12326;Sudeste
3301157;Cardoso Moreira;-21.4846;-41.6165;RJ;12823;Sudeste
3113602;Careaçu;-22.0424;-45.696;MG;6757;Sudeste
1301100;Careiro;-3.76803;-60.369;AM;37869;Norte
1301159;Careiro da Várzea;-3.314;-59.5557;AM;30225;Norte
3201308;Cariacica;-20.2632;-40.4165;ES;381285;Sudeste
2303006;Caridade;-4.22514;-39.1912;CE;22547;Nordeste
2202554;Caridade do Piauí;-7.73435;-40.9848;PI;5067;Nordeste
2907103;Carinhanha;-14.2985;-43.7724;BA;29018;Nordeste
2801405;Carira;-10.3524;-37.7002;SE;22082;Nordeste
2303105;Cariré;-3.94858;-40.476;CE;18448;Nordeste
1703867;Cariri do Tocantins;-11.8881;-49.1609;TO;4382;Norte
2303204;Caririaçu;-7.02808;-39.2828;CE;26965;Nordeste
2303303;Cariús;-6.52428;-39.4916;CE;18699;Nordeste
5102793;Carlinda;-9.94912;-55.8417;MT;10305;Centro-Oeste
4104709;Carlópolis;-23.4269;-49.7235;PR;14320;Sul
4304804;Carlos Barbosa;-29.2969;-51.5028;RS;29833;Sul
3113701;Carlos Chagas;-17.6973;-40.7723;MG;18837;Sudeste
4304853;Carlos Gomes;-27.7167;-51.9121;RS;1377;Sul
3113800;Carmésia;-19.0877;-43.1382;MG;2632;Sudeste
3301207;Carmo;-21.931;-42.6046;RJ;18895;Sudeste
3113909;Carmo da Cachoeira;-21.4633;-45.2201;MG;12170;Sudeste
3114006;Carmo da Mata;-20.5575;-44.8735;MG;11476;Sudeste
3114105;Carmo de Minas;-22.1204;-45.1307;MG;14859;Sudeste
3114204;Carmo do Cajuru;-20.1912;-44.7664;MG;22478;Sudeste
3114303;Carmo do Paranaíba;-18.991;-46.3167;MG;30329;Sudeste
3114402;Carmo do Rio Claro;-20.9736;-46.1149;MG;21225;Sudeste
5205000;Carmo do Rio Verde;-15.3549;-49.708;GO;10082;Centro-Oeste
1703883;Carmolândia;-7.03262;-48.3978;TO;2580;Norte
2801504;Carmópolis;-10.6449;-36.9887;SE;16634;Nordeste
3114501;Carmópolis de Minas;-20.5396;-44.6336;MG;19355;Sudeste
2603900;Carnaíba;-7.79342;-37.7946;PE;19551;Nordeste
2402402;Carnaúba dos Dantas;-6.55015;-36.5868;RN;8180;Nordeste
2402501;Carnaubais;-5.34181;-36.8335;RN;10759;Nordeste
2303402;Carnaubal;-4.15985;-40.9413;CE;17606;Nordeste
2603926;Carnaubeira da Penha;-8.31799;-38.7512;PE;12932;Nordeste
3114550;Carneirinho;-19.6987;-50.6894;MG;10027;Sudeste
2701803;Carneiros;-9.48476;-37.3773;AL;9081;Nordeste
1400233;Caroebe;0.884203;-59.6959;RR;10169;Centro-Oeste
2102804;Carolina;-7.33584;-47.4634;MA;24322;Nordeste
2604007;Carpina;-7.84566;-35.2514;PE;83641;Nordeste
3114600;Carrancas;-21.4898;-44.6446;MG;4047;Sudeste
2504108;Carrapateira;-7.03414;-38.3399;PB;2659;Nordeste
1703891;Carrasco Bonito;-5.31415;-48.0314;TO;4095;Norte
2604106;Caruaru;-8.28455;-35.9699;PE;361118;Nordeste
2102903;Carutapera;-1.19696;-46.0085;MA;23807;Nordeste
3114709;Carvalhópolis;-21.7735;-45.8421;MG;3579;Sudeste
3114808;Carvalhos;-22;-44.4632;MG;4478;Sudeste
3510807;Casa Branca;-21.7708;-47.0852;SP;30380;Sudeste
3114907;Casa Grande;-20.7925;-43.9343;MG;2257;Sudeste
2907202;Casa Nova;-9.16408;-40.974;BA;71969;Nordeste
4304903;Casca;-28.5605;-51.9815;RS;9031;Sul
3115003;Cascalho Rico;-18.5772;-47.8716;MG;3075;Sudeste
2303501;Cascavel;-4.12967;-38.2412;CE;71743;Nordeste
4104808;Cascavel;-24.9573;-53.459;PR;328454;Sul
1703909;Caseara;-9.27612;-49.9521;TO;5369;Norte
4304952;Caseiros;-28.2582;-51.6861;RS;3202;Sul
3301306;Casimiro de Abreu;-22.4812;-42.2066;RJ;44184;Sudeste
2604155;Casinhas;-7.74084;-35.7206;PE;14341;Nordeste
2504157;Casserengue;-6.77954;-35.8179;PB;7468;Nordeste
3115102;Cássia;-20.5831;-46.9201;MG;17740;Sudeste
3510906;Cássia dos Coqueiros;-21.2801;-47.1643;SP;2523;Sudeste
5002902;Cassilândia;-19.1179;-51.7313;MS;21939;Centro-Oeste
1502400;Castanhal;-1.29797;-47.9167;PA;200793;Norte
5102850;Castanheira;-11.1251;-58.6081;MT;8729;Centro-Oeste
1100908;Castanheiras;-11.4253;-61.9482;RO;3052;Norte
5205059;Castelândia;-18.0921;-50.203;GO;3435;Centro-Oeste
3201407;Castelo;-20.6033;-41.2031;ES;37534;Sudeste
2202604;Castelo do Piauí;-5.31869;-41.5499;PI;19716;Nordeste
3511003;Castilho;-20.8689;-51.4884;SP;21006;Sudeste
4104907;Castro;-24.7891;-50.0108;PR;71484;Sul
2907301;Castro Alves;-12.7579;-39.4248;BA;26264;Nordeste
3115300;Cataguases;-21.3924;-42.6896;MG;75123;Sudeste
5205109;Catalão;-18.1656;-47.944;GO;108823;Centro-Oeste
3511102;Catanduva;-21.1314;-48.977;SP;121862;Sudeste
4105003;Catanduvas;-25.2044;-53.1548;PR;10189;Sul
4204004;Catanduvas;-27.069;-51.6602;SC;10861;Sul
2303600;Catarina;-6.12291;-39.8736;CE;20698;Nordeste
3115359;Catas Altas;-20.0734;-43.4061;MG;5376;Sudeste
3115409;Catas Altas da Noruega;-20.6901;-43.4939;MG;3641;Sudeste
2604205;Catende;-8.67509;-35.7024;PE;42892;Nordeste
3511201;Catiguá;-21.0519;-49.0616;SP;7804;Sudeste
2504207;Catingueira;-7.12008;-37.6064;PB;4932;Nordeste
2907400;Catolândia;-12.31;-44.8648;BA;3577;Nordeste
2504306;Catolé do Rocha;-6.34062;-37.747;PB;30546;Nordeste
2907509;Catu;-12.3513;-38.3791;BA;54704;Nordeste
4305009;Catuípe;-28.2554;-54.0132;RS;8774;Sul
3115458;Catuji;-17.3018;-41.5276;MG;6311;Sudeste
2303659;Catunda;-4.64336;-40.2;CE;10342;Nordeste
5205208;Caturaí;-16.4447;-49.4936;GO;5070;Centro-Oeste
2907558;Caturama;-13.3239;-42.2904;BA;9329;Nordeste
2504355;Caturité;-7.41659;-36.0306;PB;4852;Nordeste
3115474;Catuti;-15.3616;-42.9627;MG;4986;Sudeste
2303709;Caucaia;-3.72797;-38.6619;CE;361400;Nordeste
5205307;Cavalcante;-13.7976;-47.4566;GO;9709;Centro-Oeste
3115508;Caxambu;-21.9753;-44.9319;MG;21656;Sudeste
4204103;Caxambu do Sul;-27.1624;-52.8807;SC;3642;Sul
2103000;Caxias;-4.86505;-43.3617;MA;164880;Nordeste
4305108;Caxias do Sul;-29.1629;-51.1792;RS;510906;Sul
2202653;Caxingó;-3.41904;-41.8955;PI;5424;Nordeste
2402600;Ceará-Mirim;-5.64323;-35.4247;RN;73497;Nordeste
2103109;Cedral;-2.00027;-44.5281;MA;10675;Nordeste
3511300;Cedral;-20.9009;-49.2664;SP;9237;Sudeste
2303808;Cedro;-6.60034;-39.0609;CE;25557;Nordeste
2604304;Cedro;-7.71179;-39.2367;PE;11807;Nordeste
2801603;Cedro de São João;-10.2534;-36.8856;SE;5897;Nordeste
3115607;Cedro do Abaeté;-19.1458;-45.712;MG;1164;Sudeste
4204152;Celso Ramos;-27.6327;-51.335;SC;2728;Sul
1704105;Centenário;-8.96103;-47.3304;TO;2905;Norte
4305116;Centenário;-27.7615;-51.9984;RS;2891;Sul
4105102;Centenário do Sul;-22.8188;-51.5973;PR;10827;Sul
2907608;Central;-11.1376;-42.1116;BA;17266;Nordeste
3115706;Central de Minas;-18.7612;-41.3143;MG;7032;Sudeste
2103125;Central do Maranhão;-2.19831;-44.8254;MA;8673;Nordeste
3115805;Centralina;-18.5852;-49.2014;MG;10350;Sudeste
2103158;Centro do Guilherme;-2.44891;-46.0345;MA;13458;Nordeste
2103174;Centro Novo do Maranhão;-2.12696;-46.1228;MA;21622;Nordeste
1100056;Cerejeiras;-13.187;-60.8168;RO;16323;Norte
5205406;Ceres;-15.3061;-49.6;GO;22191;Centro-Oeste
3511409;Cerqueira César;-23.038;-49.1655;SP;19985;Sudeste
3511508;Cerquilho;-23.1665;-47.7459;SP;48949;Sudeste
4305124;Cerrito;-31.8419;-52.8004;RS;6091;Sul
4105201;Cerro Azul;-26.0891;-52.8691;PR;17779;Sul
4305132;Cerro Branco;-29.657;-52.9406;RS;4691;Sul
2402709;Cerro Corá;-6.03503;-36.3503;RN;11179;Nordeste
4305157;Cerro Grande;-27.6106;-53.1672;RS;2311;Sul
4305173;Cerro Grande do Sul;-30.5905;-51.7418;RS;12239;Sul
4305207;Cerro Largo;-28.1463;-54.7428;RS;14133;Sul
4204178;Cerro Negro;-27.7942;-50.8673;SC;3124;Sul
3511607;Cesário Lange;-23.226;-47.9545;SP;18148;Sudeste
4105300;Céu Azul;-25.1489;-53.8415;PR;11765;Sul
5205455;Cezarina;-16.9718;-49.7758;GO;8606;Centro-Oeste
2604403;Chã de Alegria;-8.00679;-35.204;PE;13518;Nordeste
2604502;Chã Grande;-8.23827;-35.4571;PE;21698;Nordeste
2701902;Chã Preta;-9.2556;-36.2983;AL;7311;Nordeste
3115904;Chácara;-21.6733;-43.215;MG;3154;Sudeste
3116001;Chalé;-20.0453;-41.6897;MG;5704;Sudeste
4305306;Chapada;-28.0559;-53.0665;RS;9269;Sul
1705102;Chapada da Natividade;-11.6175;-47.7486;TO;3333;Norte
1704600;Chapada de Areia;-10.1419;-49.1403;TO;1406;Norte
3116100;Chapada do Norte;-17.0881;-42.5392;MG;15356;Sudeste
5103007;Chapada dos Guimarães;-15.4643;-55.7499;MT;19752;Centro-Oeste
3116159;Chapada Gaúcha;-15.3014;-45.6116;MG;13680;Sudeste
5205471;Chapadão do Céu;-18.4073;-52.549;GO;10167;Centro-Oeste
4204194;Chapadão do Lageado;-27.5905;-49.5539;SC;2988;Sul
5002951;Chapadão do Sul;-18.788;-52.6263;MS;25218;Centro-Oeste
2103208;Chapadinha;-3.73875;-43.3538;MA;79675;Nordeste
4204202;Chapecó;-27.1004;-52.6152;SC;220367;Sul
3511706;Charqueada;-22.5096;-47.7755;SP;17190;Sudeste
4305355;Charqueadas;-29.9625;-51.6289;RS;40789;Sul
4305371;Charrua;-27.9493;-52.015;RS;3279;Sul
2303907;Chaval;-3.03571;-41.2435;CE;13069;Nordeste
3557204;Chavantes;-23.0366;-49.7096;SP;12418;Sudeste
1502509;Chaves;-0.164154;-49.987;PA;23717;Norte
3116209;Chiador;-21.9996;-43.0617;MG;2687;Sudeste
4305405;Chiapetta;-27.923;-53.9419;RS;3756;Sul
4105409;Chopinzinho;-25.8515;-52.5173;PR;19254;Sul
2303931;Choró;-4.83906;-39.1344;CE;13521;Nordeste
2303956;Chorozinho;-4.28873;-38.4986;CE;20264;Nordeste
2907707;Chorrochó;-8.9695;-39.0979;BA;11177;Nordeste
4305439;Chuí;-33.6866;-53.4594;RS;6704;Sul
1100924;Chupinguaia;-12.5611;-60.8877;RO;11182;Norte
4305447;Chuvisca;-30.7504;-51.9737;RS;5441;Sul
4105508;Cianorte;-23.6599;-52.6054;PR;82620;Sul
2907806;Cícero Dantas;-10.5897;-38.3794;BA;32515;Nordeste
4105607;Cidade Gaúcha;-23.3772;-52.9436;PR;12652;Sul
5205497;Cidade Ocidental;-16.0765;-47.9252;GO;71376;Centro-Oeste
2103257;Cidelândia;-5.17465;-47.7781;MA;14697;Nordeste
4305454;Cidreira;-30.1604;-50.2337;RS;16254;Sul
2907905;Cipó;-11.1032;-38.5179;BA;17300;Nordeste
3116308;Cipotânea;-20.9026;-43.3629;MG;6787;Sudeste
4305504;Ciríaco;-28.3419;-51.8741;RS;4747;Sul
3116407;Claraval;-20.397;-47.2768;MG;4843;Sudeste
3116506;Claro dos Poções;-17.082;-44.2061;MG;7551;Sudeste
5103056;Cláudia;-11.5075;-54.8835;MT;12149;Centro-Oeste
3116605;Cláudio;-20.4437;-44.7673;MG;28617;Sudeste
3511904;Clementina;-21.5604;-50.4525;SP;8617;Sudeste
4105706;Clevelândia;-26.4043;-52.3508;PR;16559;Sul
2908002;Coaraci;-14.637;-39.5556;BA;16993;Nordeste
1301209;Coari;-4.09412;-63.1441;AM;85097;Norte
2202703;Cocal;-3.47279;-41.5546;PI;27787;Nordeste
2202711;Cocal de Telha;-4.5571;-41.9587;PI;4891;Nordeste
4204251;Cocal do Sul;-28.5986;-49.3335;SC;16684;Sul
2202729;Cocal dos Alves;-3.62047;-41.4402;PI;6153;Nordeste
5103106;Cocalinho;-14.3903;-51.0001;MT;5700;Centro-Oeste
5205513;Cocalzinho de Goiás;-15.7914;-48.7747;GO;20240;Centro-Oeste
2908101;Cocos;-14.1814;-44.5352;BA;18777;Nordeste
1301308;Codajás;-3.83053;-62.0658;AM;28637;Norte
2103307;Codó;-4.45562;-43.8924;MA;122859;Nordeste
2103406;Coelho Neto;-4.25245;-43.0108;MA;49435;Nordeste
3116704;Coimbra;-20.8535;-42.8008;MG;7556;Sudeste
2702009;Coité do Nóia;-9.63348;-36.5845;AL;10693;Nordeste
2202737;Coivaras;-5.09224;-42.208;PI;4020;Nordeste
1502608;Colares;-0.936423;-48.2803;PA;12085;Norte
3201506;Colatina;-19.5493;-40.6269;ES;122499;Sudeste
5103205;Colíder;-10.8135;-55.461;MT;33438;Centro-Oeste
3512001;Colina;-20.7114;-48.5387;SP;18468;Sudeste
2103505;Colinas;-6.03199;-44.2543;MA;41178;Nordeste
4305587;Colinas;-29.3948;-51.8556;RS;2438;Sul
5205521;Colinas do Sul;-14.1528;-48.076;GO;3382;Centro-Oeste
1705508;Colinas do Tocantins;-8.05764;-48.4757;TO;35424;Norte
1716703;Colméia;-8.72463;-48.7638;TO;8205;Norte
5103254;Colniza;-9.46121;-59.2252;MT;38582;Centro-Oeste
3512100;Colômbia;-20.1768;-48.6865;SP;6210;Sudeste
4105805;Colombo;-25.2925;-49.2262;PR;243726;Sul
2202752;Colônia do Gurguéia;-8.1837;-43.794;PI;6484;Nordeste
2202778;Colônia do Piauí;-7.22651;-42.1756;PI;7656;Nordeste
2702108;Colônia Leopoldina;-8.91806;-35.7214;AL;21698;Nordeste
4105904;Colorado;-22.8374;-51.9743;PR;24012;Sul
4305603;Colorado;-28.5258;-52.9928;RS;3175;Sul
1100064;Colorado do Oeste;-13.1174;-60.5454;RO;15882;Norte
3116803;Coluna;-18.2311;-42.8352;MG;8873;Sudeste
1705557;Combinado;-12.7917;-46.5388;TO;4852;Norte
3116902;Comendador Gomes;-19.6973;-49.0789;MG;3111;Sudeste
3300951;Comendador Levy Gasparian;-22.0404;-43.214;RJ;8561;Sudeste
3117009;Comercinho;-16.2963;-41.7945;MG;6929;Sudeste
5103304;Comodoro;-13.6614;-59.7848;MT;20763;Centro-Oeste
2504405;Conceição;-7.55106;-38.5014;PB;18982;Nordeste
3117108;Conceição da Aparecida;-21.096;-46.2049;MG;10292;Sudeste
3201605;Conceição da Barra;-18.5883;-39.7362;ES;31063;Sudeste
3115201;Conceição da Barra de Minas;-21.1316;-44.4729;MG;3954;Sudeste
2908200;Conceição da Feira;-12.5078;-38.9978;BA;22581;Nordeste
3117306;Conceição das Alagoas;-19.9172;-48.3839;MG;27893;Sudeste
3117207;Conceição das Pedras;-22.1576;-45.4562;MG;2812;Sudeste
3117405;Conceição de Ipanema;-19.9326;-41.6908;MG;4574;Sudeste
3301405;Conceição de Macabu;-22.0834;-41.8719;RJ;23228;Sudeste
2908309;Conceição do Almeida;-12.7836;-39.1715;BA;17247;Nordeste
1502707;Conceição do Araguaia;-8.26136;-49.2689;PA;47864;Norte
2202802;Conceição do Canindé;-7.87638;-41.5942;PI;4803;Nordeste
3201704;Conceição do Castelo;-20.3639;-41.2417;ES;12723;Sudeste
2908408;Conceição do Coité;-11.56;-39.2808;BA;66612;Nordeste
2908507;Conceição do Jacuípe;-12.3268;-38.7684;BA;33153;Nordeste
2103554;Conceição do Lago-Açu;-3.85142;-44.8895;MA;16237;Nordeste
3117504;Conceição do Mato Dentro;-19.0344;-43.4221;MG;17842;Sudeste
3117603;Conceição do Pará;-19.7456;-44.8945;MG;5507;Sudeste
3117702;Conceição do Rio Verde;-21.8778;-45.087;MG;13638;Sudeste
1705607;Conceição do Tocantins;-12.2209;-47.2951;TO;4105;Norte
3117801;Conceição dos Ouros;-22.4078;-45.7996;MG;11638;Sudeste
3512209;Conchal;-22.3375;-47.1729;SP;28050;Sudeste
3512308;Conchas;-23.0154;-48.0134;SP;17896;Sudeste
4204301;Concórdia;-27.2335;-52.026;SC;74641;Sul
1502756;Concórdia do Pará;-1.99238;-47.9422;PA;33318;Norte
2504504;Condado;-6.89831;-37.606;PB;6654;Nordeste
2604601;Condado;-7.58787;-35.0999;PE;26421;Nordeste
2504603;Conde;-7.25746;-34.8999;PB;24670;Nordeste
2908606;Conde;-11.8179;-37.6131;BA;25837;Nordeste
2908705;Condeúba;-14.9022;-41.9718;BA;17247;Nordeste
4305702;Condor;-28.2075;-53.4905;RS;6753;Sul
3117836;Cônego Marinho;-15.2892;-44.4181;MG;7642;Sudeste
3117876;Confins;-19.6282;-43.9931;MG;6730;Sudeste
5103353;Confresa;-10.6437;-51.5699;MT;30933;Centro-Oeste
2504702;Congo;-7.79078;-36.6581;PB;4786;Nordeste
3117900;Congonhal;-22.1488;-46.043;MG;11950;Sudeste
3118007;Congonhas;-20.4958;-43.851;MG;54762;Sudeste
3118106;Congonhas do Norte;-18.8021;-43.6767;MG;5045;Sudeste
4106001;Congonhinhas;-23.5493;-50.5569;PR;8818;Sul
3118205;Conquista;-19.9312;-47.5492;MG;6939;Sudeste
5103361;Conquista D'Oeste;-14.5381;-59.5444;MT;4038;Centro-Oeste
3118304;Conselheiro Lafaiete;-20.6634;-43.7846;MG;128589;Sudeste
4106100;Conselheiro Mairinck;-23.623;-50.1707;PR;3860;Sul
3118403;Conselheiro Pena;-19.1789;-41.4736;MG;22921;Sudeste
3118502;Consolação;-22.5493;-45.9255;MG;1783;Sudeste
4305801;Constantina;-27.732;-52.9938;RS;9911;Sul
3118601;Contagem;-19.9321;-44.0539;MG;663855;Sudeste
4106209;Contenda;-25.6788;-49.535;PR;18584;Sul
2908804;Contendas do Sincorá;-13.7537;-41.048;BA;4066;Nordeste
3118700;Coqueiral;-21.1858;-45.4366;MG;9159;Sudeste
4305835;Coqueiro Baixo;-29.1802;-52.0942;RS;1501;Sul
2702207;Coqueiro Seco;-9.63715;-35.7994;AL;5845;Nordeste
4305850;Coqueiros do Sul;-28.1194;-52.7842;RS;2306;Sul
3118809;Coração de Jesus;-16.6841;-44.3635;MG;26602;Sudeste
2908903;Coração de Maria;-12.2333;-38.7487;BA;22605;Nordeste
4106308;Corbélia;-24.7971;-53.3006;PR;17071;Sul
3301504;Cordeiro;-22.0267;-42.3648;RJ;21926;Sudeste
3512407;Cordeirópolis;-22.4778;-47.4519;SP;24528;Sudeste
2909000;Cordeiros;-15.0356;-41.9308;BA;8614;Nordeste
4204350;Cordilheira Alta;-26.9844;-52.6056;SC;4453;Sul
3118908;Cordisburgo;-19.1224;-44.3224;MG;8890;Sudeste
3119005;Cordislândia;-21.7891;-45.6999;MG;3538;Sudeste
2304004;Coreaú;-3.5415;-40.6587;CE;23136;Nordeste
2504801;Coremas;-7.00712;-37.9346;PB;15445;Nordeste
5003108;Corguinho;-19.8243;-54.8281;MS;5947;Centro-Oeste
2909109;Coribe;-13.8232;-44.4586;BA;14194;Nordeste
3119104;Corinto;-18.369;-44.4542;MG;23731;Sudeste
4106407;Cornélio Procópio;-23.1829;-50.6498;PR;47845;Sul
3119203;Coroaci;-18.6156;-42.2791;MG;9991;Sudeste
3512506;Coroados;-21.3521;-50.2859;SP;6058;Sudeste
2103604;Coroatá;-4.13442;-44.1244;MA;65296;Nordeste
3119302;Coromandel;-18.4734;-47.1933;MG;27974;Sudeste
4305871;Coronel Barros;-28.3921;-54.0686;RS;2519;Sul
4305900;Coronel Bicaco;-27.7197;-53.7022;RS;7325;Sul
4106456;Coronel Domingos Soares;-26.2277;-52.0356;PR;7497;Sul
2402808;Coronel Ezequiel;-6.3748;-36.2223;RN;5506;Nordeste
3119401;Coronel Fabriciano;-19.5179;-42.6276;MG;109855;Sudeste
4204400;Coronel Freitas;-26.9057;-52.7011;SC;9981;Sul
2402907;Coronel João Pessoa;-6.24974;-38.4441;RN;4912;Nordeste
2909208;Coronel João Sá;-10.2847;-37.9198;BA;15.895;Nordeste
2202851;Coronel José Dias;-8.81397;-42.5232;PI;4682;Nordeste
3512605;Coronel Macedo;-23.6261;-49.31;SP;4681;Sudeste
4204459;Coronel Martins;-26.511;-52.6694;SC;2549;Sul
3119500;Coronel Murta;-16.6148;-42.184;MG;9222;Sudeste
3119609;Coronel Pacheco;-21.5898;-43.256;MG;3086;Sudeste
4305934;Coronel Pilar;-29.2695;-51.6847;RS;1628;Sul
5003157;Coronel Sapucaia;-23.2724;-55.5278;MS;15253;Centro-Oeste
4106506;Coronel Vivida;-25.9767;-52.5641;PR;20734;Sul
3119708;Coronel Xavier Chaves;-21.0277;-44.2206;MG;3434;Sudeste
3119807;Córrego Danta;-19.8198;-45.9032;MG;3215;Sudeste
3119906;Córrego do Bom Jesus;-22.6269;-46.0241;MG;3704;Sudeste
5205703;Córrego do Ouro;-16.2918;-50.5503;GO;2327;Centro-Oeste
3119955;Córrego Fundo;-20.4474;-45.5617;MG;6337;Sudeste
3120003;Córrego Novo;-19.8361;-42.3988;MG;2771;Sudeste
4204558;Correia Pinto;-27.5877;-50.3614;SC;12795;Sul
2202901;Corrente;-10.4333;-45.1633;PI;26644;Nordeste
2604700;Correntes;-9.12117;-36.3244;PE;18207;Nordeste
2909307;Correntina;-13.3477;-44.6333;BA;32137;Nordeste
2604809;Cortês;-8.47443;-35.5468;PE;12578;Nordeste
5003207;Corumbá;-19.0077;-57.651;MS;111435;Centro-Oeste
5205802;Corumbá de Goiás;-15.9245;-48.8117;GO;11110;Centro-Oeste
5205901;Corumbaíba;-18.1415;-48.5626;GO;9723;Centro-Oeste
3512704;Corumbataí;-22.2213;-47.6215;SP;4055;Sudeste
4106555;Corumbataí do Sul;-24.101;-52.1177;PR;3219;Sul
1100072;Corumbiara;-12.9551;-60.8947;RO;7391;Norte
4204509;Corupá;-26.4246;-49.246;SC;15909;Sul
2702306;Coruripe;-10.1276;-36.1717;AL;56933;Nordeste
3512803;Cosmópolis;-22.6419;-47.1926;SP;72252;Sudeste
3512902;Cosmorama;-20.4755;-49.7827;SP;7307;Sudeste
1100080;Costa Marques;-12.4367;-64.228;RO;18331;Norte
5003256;Costa Rica;-18.5432;-53.1287;MS;20823;Centro-Oeste
2909406;Cotegipe;-12.0228;-44.2566;BA;13782;Nordeste
3513009;Cotia;-23.6022;-46.919;SP;249210;Sudeste
4305959;Cotiporã;-28.9891;-51.6971;RS;3853;Sul
5103379;Cotriguaçu;-9.85656;-58.4192;MT;19750;Centro-Oeste
3120102;Couto de Magalhães de Minas;-18.0727;-43.4648;MG;4410;Sudeste
1706001;Couto Magalhães;-8.28411;-49.2473;TO;5588;Norte
4305975;Coxilha;-28.128;-52.3023;RS;2756;Sul
5003306;Coxim;-18.5013;-54.751;MS;33543;Centro-Oeste
2504850;Coxixola;-7.62365;-36.6064;PB;1921;Nordeste
2702355;Craíbas;-9.6178;-36.7697;AL;24219;Nordeste
2304103;Crateús;-5.16768;-40.6536;CE;75074;Nordeste
2304202;Crato;-7.2153;-39.4103;CE;132123;Nordeste
3513108;Cravinhos;-21.338;-47.7324;SP;35292;Sudeste
2909505;Cravolândia;-13.3531;-39.8031;BA;5349;Nordeste
4204608;Criciúma;-28.6723;-49.3729;SC;215186;Sul
3120151;Crisólita;-17.2381;-40.9184;MG;6704;Sudeste
2909604;Crisópolis;-11.5059;-38.1515;BA;21103;Nordeste
4306007;Crissiumal;-27.4999;-54.0994;RS;13448;Sul
3120201;Cristais;-20.8733;-45.5167;MG;12798;Sudeste
3513207;Cristais Paulista;-20.4036;-47.4209;SP;8631;Sudeste
4306056;Cristal;-31.0046;-52.0436;RS;8009;Sul
4306072;Cristal do Sul;-27.452;-53.2422;RS;2847;Sul
1706100;Cristalândia;-10.5985;-49.1942;TO;7289;Norte
2203008;Cristalândia do Piauí;-10.6443;-45.1893;PI;8294;Nordeste
3120300;Cristália;-16.716;-42.8571;MG;5971;Sudeste
5206206;Cristalina;-16.7676;-47.6131;GO;58997;Centro-Oeste
3120409;Cristiano Otoni;-20.8324;-43.8166;MG;5150;Sudeste
5206305;Cristianópolis;-17.1987;-48.7034;GO;2966;Centro-Oeste
3120508;Cristina;-22.208;-45.2673;MG;10242;Sudeste
2801702;Cristinápolis;-11.4668;-37.7585;SE;17874;Nordeste
2203107;Cristino Castro;-8.82273;-44.223;PI;10423;Nordeste
2909703;Cristópolis;-12.2249;-44.4214;BA;13910;Nordeste
5206404;Crixás;-14.5412;-49.974;GO;16949;Centro-Oeste
1706258;Crixás do Tocantins;-11.0994;-48.9152;TO;1722;Norte
2304236;Croatá;-4.40481;-40.9022;CE;18063;Nordeste
5206503;Cromínia;-17.2883;-49.3798;GO;3486;Centro-Oeste
3120607;Crucilândia;-20.3923;-44.3334;MG;5034;Sudeste
2304251;Cruz;-2.91813;-40.176;CE;24827;Nordeste
4306106;Cruz Alta;-28.645;-53.6048;RS;60299;Sul
2909802;Cruz das Almas;-12.6675;-39.1008;BA;63239;Nordeste
2504900;Cruz do Espírito Santo;-7.13902;-35.0857;PB;17319;Nordeste
4106803;Cruz Machado;-26.0166;-51.343;PR;18708;Sul
3513306;Cruzália;-22.7373;-50.7909;SP;2073;Sudeste
4306130;Cruzaltense;-27.6672;-52.6522;RS;1833;Sul
3513405;Cruzeiro;-22.5728;-44.969;SP;82238;Sudeste
3120706;Cruzeiro da Fortaleza;-18.944;-46.6669;MG;3626;Sudeste
4106571;Cruzeiro do Iguaçu;-25.6192;-53.1285;PR;4252;Sul
4106605;Cruzeiro do Oeste;-23.7799;-53.0774;PR;20932;Sul
1200203;Cruzeiro do Sul;-7.62762;-72.6756;AC;88376;Norte
4106704;Cruzeiro do Sul;-22.9624;-52.1622;PR;4469;Sul
4306205;Cruzeiro do Sul;-29.5148;-51.9928;RS;12348;Sul
2403004;Cruzeta;-6.40894;-36.7782;RN;7998;Nordeste
3120805;Cruzília;-21.84;-44.8067;MG;15417;Sudeste
4106852;Cruzmaltina;-24.0132;-51.4563;PR;2950;Sul
3513504;Cubatão;-23.8911;-46.424;SP;130705;Sudeste
2505006;Cubati;-6.86686;-36.3619;PB;7797;Nordeste
5103403;Cuiabá;-15.601;-56.0974;MT;612547;Centro-Oeste
2505105;Cuité;-6.47647;-36.1515;PB;20338;Nordeste
2505238;Cuité de Mamanguape;-6.91292;-35.2502;PB;6353;Nordeste
2505204;Cuitegi;-6.89058;-35.5215;PB;6803;Nordeste
1100940;Cujubim;-9.36065;-62.5846;RO;25215;Norte
5206602;Cumari;-18.2644;-48.1511;GO;2854;Centro-Oeste
2604908;Cumaru;-8.00827;-35.6957;PE;10906;Nordeste
1502764;Cumaru do Norte;-7.81097;-50.7698;PA;13473;Norte
2801900;Cumbe;-10.352;-37.1846;SE;3987;Nordeste
3513603;Cunha;-23.0731;-44.9576;SP;21547;Sudeste
4204707;Cunha Porã;-26.895;-53.1662;SC;11086;Sul
4204756;Cunhataí;-26.9709;-53.0895;SC;1962;Sul
3120839;Cuparaque;-18.9648;-41.0986;MG;4982;Sudeste
2605004;Cupira;-8.62432;-35.9518;PE;24107;Nordeste
2909901;Curaçá;-8.98458;-39.8997;BA;34700;Nordeste
2203206;Curimatá;-10.0326;-44.3002;PI;11388;Nordeste
1502772;Curionópolis;-6.09965;-49.6068;PA;17929;Norte
4106902;Curitiba;-25.4195;-49.2646;PR;1933105;Sul
4204806;Curitibanos;-27.2824;-50.5816;SC;39745;Sul
4107009;Curiúva;-24.0362;-50.4576;PR;15101;Sul
2203230;Currais;-9.01175;-44.4062;PI;4954;Nordeste
2403103;Currais Novos;-6.25484;-36.5146;RN;44786;Nordeste
2505279;Curral de Cima;-6.72325;-35.2639;PB;5227;Nordeste
3120870;Curral de Dentro;-15.9327;-41.8557;MG;7729;Sudeste
2203271;Curral Novo do Piauí;-7.8313;-40.8957;PI;5343;Nordeste
2505303;Curral Velho;-7.53075;-38.1962;PB;2516;Nordeste
1502806;Curralinho;-1.81179;-49.7952;PA;34448;Norte
2203255;Curralinhos;-5.60825;-42.8376;PI;4443;Nordeste
1502855;Curuá;-1.88775;-55.1168;PA;14393;Norte
1502905;Curuçá;-0.733214;-47.8515;PA;40066;Norte
2103703;Cururupu;-1.81475;-44.8644;MA;32695;Nordeste
5103437;Curvelândia;-15.6084;-57.9133;MT;5219;Centro-Oeste
3120904;Curvelo;-18.7527;-44.4303;MG;80129;Sudeste
2605103;Custódia;-8.08546;-37.6443;PE;37111;Nordeste
1600212;Cutias;0.970761;-50.8005;AP;5983;Norte
5206701;Damianópolis;-14.5604;-46.178;GO;3311;Centro-Oeste
2505352;Damião;-6.63161;-35.9101;PB;5330;Nordeste
5206800;Damolândia;-16.2544;-49.3631;GO;2938;Centro-Oeste
1706506;Darcinópolis;-6.71591;-47.7597;TO;6097;Norte
2910008;Dário Meira;-14.4229;-39.9031;BA;10710;Nordeste
3121001;Datas;-18.4478;-43.6591;MG;5410;Sudeste
4306304;David Canabarro;-28.3849;-51.8482;RS;4740;Sul
2103752;Davinópolis;-5.54637;-47.4217;MA;12908;Nordeste
5206909;Davinópolis;-18.1501;-47.5568;GO;2094;Centro-Oeste
3121100;Delfim Moreira;-22.5036;-45.2792;MG;8025;Sudeste
3121209;Delfinópolis;-20.3468;-46.8456;MG;7114;Sudeste
2702405;Delmiro Gouveia;-9.38534;-37.9987;AL;52016;Nordeste
3121258;Delta;-19.9721;-47.7841;MG;10533;Sudeste
2203305;Demerval Lobão;-5.35875;-42.6776;PI;13817;Nordeste
5103452;Denise;-14.7324;-57.0583;MT;9462;Centro-Oeste
5003454;Deodápolis;-22.2763;-54.1682;MS;12924;Centro-Oeste
2304269;Deputado Irapuan Pinheiro;-5.91485;-39.257;CE;9625;Nordeste
4306320;Derrubadas;-27.2642;-53.8645;RS;2805;Sul
3513702;Descalvado;-21.9002;-47.6181;SP;33718;Sudeste
4204905;Descanso;-26.827;-53.5034;SC;8250;Sul
3121308;Descoberto;-21.46;-42.9618;MG;5013;Sudeste
2505402;Desterro;-7.287;-37.0925;PB;8297;Nordeste
3121407;Desterro de Entre Rios;-20.665;-44.3334;MG;7243;Sudeste
3121506;Desterro do Melo;-21.143;-43.5178;MG;2901;Sudeste
4306353;Dezesseis de Novembro;-28.219;-55.0617;RS;2427;Sul
3513801;Diadema;-23.6813;-46.6205;SP;423884;Sudeste
2505600;Diamante;-7.41738;-38.2615;PB;6552;Nordeste
4107108;Diamante do Norte;-22.655;-52.8617;PR;5087;Sul
4107124;Diamante do Sul;-25.035;-52.6768;PR;3439;Sul
4107157;Diamante D'Oeste;-24.9419;-54.1052;PR;5253;Sul
3121605;Diamantina;-18.2413;-43.6031;MG;47723;Sudeste
5103502;Diamantino;-14.4037;-56.4366;MT;22041;Centro-Oeste
1707009;Dianópolis;-11.624;-46.8198;TO;22139;Norte
2910057;Dias d'Ávila;-12.6187;-38.2926;BA;81089;Nordeste
4306379;Dilermando de Aguiar;-29.7054;-54.2122;RS;3014;Sul
3121704;Diogo de Vasconcelos;-20.4879;-43.1953;MG;3802;Sudeste
3121803;Dionísio;-19.8433;-42.7701;MG;7729;Sudeste
4205001;Dionísio Cerqueira;-26.2648;-53.6351;SC;15498;Sul
5207105;Diorama;-16.2329;-51.2543;GO;2484;Centro-Oeste
3513850;Dirce Reis;-20.4642;-50.6073;SP;1793;Sudeste
2203354;Dirceu Arcoverde;-9.33939;-42.4348;PI;7011;Nordeste
2802007;Divina Pastora;-10.6782;-37.1506;SE;5138;Nordeste
3121902;Divinésia;-20.9917;-43.0003;MG;3417;Sudeste
3122009;Divino;-20.6134;-42.1438;MG;19931;Sudeste
3122108;Divino das Laranjeiras;-18.7755;-41.4781;MG;4979;Sudeste
3201803;Divino de São Lourenço;-20.6229;-41.6937;ES;4304;Sudeste
3513900;Divinolândia;-21.6637;-46.7361;SP;11146;Sudeste
3122207;Divinolândia de Minas;-18.8004;-42.6103;MG;7571;Sudeste
3122306;Divinópolis;-20.1446;-44.8912;MG;238230;Sudeste
5208301;Divinópolis de Goiás;-13.2853;-46.3999;GO;4804;Centro-Oeste
1707108;Divinópolis do Tocantins;-9.80018;-49.2169;TO;6900;Norte
3122355;Divisa Alegre;-15.7221;-41.3463;MG;6786;Sudeste
3122405;Divisa Nova;-21.5092;-46.1904;MG;6011;Sudeste
3122454;Divisópolis;-15.7254;-40.9997;MG;11019;Sudeste
3514007;Dobrada;-21.5155;-48.3935;SP;8929;Sudeste
3514106;Dois Córregos;-22.3673;-48.3819;SP;27315;Sudeste
4306403;Dois Irmãos;-29.5836;-51.0898;RS;32671;Sul
4306429;Dois Irmãos das Missões;-27.6621;-53.5304;RS;2026;Sul
5003488;Dois Irmãos do Buriti;-20.6848;-55.2915;MS;11385;Centro-Oeste
1707207;Dois Irmãos do Tocantins;-9.25534;-49.0638;TO;7198;Norte
4306452;Dois Lajeados;-28.983;-51.8396;RS;3400;Sul
2702504;Dois Riachos;-9.38465;-37.0965;AL;11075;Nordeste
4107207;Dois Vizinhos;-25.7407;-53.057;PR;40641;Sul
3514205;Dolcinópolis;-20.124;-50.5149;SP;2115;Sudeste
5103601;Dom Aquino;-15.8099;-54.9223;MT;8178;Centro-Oeste
2910107;Dom Basílio;-13.7565;-41.7677;BA;12199;Nordeste
3122470;Dom Bosco;-16.652;-46.2597;MG;3677;Sudeste
3122504;Dom Cavati;-19.3735;-42.1121;MG;5072;Sudeste
1502939;Dom Eliseu;-4.19944;-47.8245;PA;59719;Norte
2203404;Dom Expedito Lopes;-6.95332;-41.6396;PI;6904;Nordeste
4306502;Dom Feliciano;-30.7004;-52.1026;RS;15414;Sul
2203453;Dom Inocêncio;-9.00516;-41.9697;PI;9556;Nordeste
3122603;Dom Joaquim;-18.961;-43.2544;MG;4195;Sudeste
2910206;Dom Macedo Costa;-12.9016;-39.1923;BA;4058;Nordeste
4306601;Dom Pedrito;-30.9756;-54.6694;RS;38461;Sul
2103802;Dom Pedro;-5.03518;-44.4409;MA;23350;Nordeste
4306551;Dom Pedro de Alcântara;-29.3639;-49.853;RS;2534;Sul
3122702;Dom Silvério;-20.1627;-42.9627;MG;5237;Sudeste
3122801;Dom Viçoso;-22.2511;-45.1643;MG;3001;Sudeste
3201902;Domingos Martins;-20.3603;-40.6594;ES;33850;Sudeste
2203420;Domingos Mourão;-4.2495;-41.2683;PI;4355;Nordeste
4205100;Dona Emma;-26.981;-49.7261;SC;4146;Sul
#N/D;#N/D;#N/D;#N/D;MG;6572;Sudeste
4306700;Dona Francisca;-29.6195;-53.3617;RS;3041;Sul
2505709;Dona Inês;-6.61566;-35.6205;PB;10453;Nordeste
3123007;Dores de Campos;-21.1139;-44.0207;MG;10153;Sudeste
3123106;Dores de Guanhães;-19.0516;-42.9254;MG;5169;Sudeste
3123205;Dores do Indaiá;-19.4628;-45.5927;MG;13483;Sudeste
3202009;Dores do Rio Preto;-20.6931;-41.8405;ES;6749;Sudeste
3123304;Dores do Turvo;-20.9785;-43.1834;MG;4259;Sudeste
3123403;Doresópolis;-20.2868;-45.9007;MG;1527;Sudeste
2605152;Dormentes;-8.44116;-40.7662;PE;18908;Nordeste
4107256;Douradina;-23.3807;-53.2918;PR;8747;Sul
5003504;Douradina;-22.0405;-54.6158;MS;5924;Centro-Oeste
3514304;Dourado;-22.1044;-48.3178;SP;8873;Sudeste
3123502;Douradoquara;-18.4338;-47.5993;MG;1908;Sudeste
5003702;Dourados;-22.2231;-54.812;MS;222949;Centro-Oeste
4107306;Doutor Camargo;-23.5582;-52.2178;PR;5979;Sul
4306734;Doutor Maurício Cardoso;-27.5103;-54.3577;RS;4549;Sul
4205159;Doutor Pedrinho;-26.7174;-49.4795;SC;4064;Sul
4306759;Doutor Ricardo;-29.084;-51.9972;RS;1983;Sul
2403202;Doutor Severiano;-6.08082;-38.3794;RN;7076;Nordeste
4128633;Doutor Ulysses;-24.5665;-49.4219;PR;5580;Sul
5207253;Doverlândia;-16.7188;-52.3189;GO;7322;Centro-Oeste
3514403;Dracena;-21.4843;-51.535;SP;46793;Sudeste
3514502;Duartina;-22.4146;-49.4084;SP;12445;Sudeste
3301603;Duas Barras;-22.0536;-42.5232;RJ;11492;Sudeste
2505808;Duas Estradas;-6.68499;-35.418;PB;3596;Nordeste
1707306;Dueré;-11.3416;-49.2716;TO;4686;Norte
3514601;Dumont;-21.2324;-47.9756;SP;9868;Sudeste
2103901;Duque Bacelar;-4.15002;-42.9477;MA;11349;Nordeste
3301702;Duque de Caxias;-22.7858;-43.3049;RJ;919596;Sudeste
3123528;Durandé;-20.2058;-41.7977;MG;7841;Sudeste
3514700;Echaporã;-22.4326;-50.2038;SP;6102;Sudeste
3202108;Ecoporanga;-18.3702;-40.836;ES;22923;Sudeste
5207352;Edealina;-17.4239;-49.6644;GO;3699;Centro-Oeste
5207402;Edéia;-17.3406;-49.9295;GO;12372;Centro-Oeste
1301407;Eirunepé;-6.65677;-69.8662;AM;35273;Norte
3514809;Eldorado;-24.5281;-48.1141;SP;15494;Sudeste
5003751;Eldorado;-23.7868;-54.2838;MS;12353;Centro-Oeste
1502954;Eldorado do Carajás;-6.10389;-49.3553;PA;33808;Norte
4306767;Eldorado do Sul;-30.0847;-51.6187;RS;41285;Sul
2203503;Elesbão Veloso;-6.19947;-42.1355;PI;14602;Nordeste
3514908;Elias Fausto;-23.0428;-47.3682;SP;17772;Sudeste
2203602;Eliseu Martins;-8.09629;-43.6705;PI;4915;Nordeste
3514924;Elisiário;-21.1678;-49.1146;SP;3651;Sudeste
2910305;Elísio Medrado;-12.9417;-39.5191;BA;8122;Nordeste
3123601;Elói Mendes;-21.6088;-45.5691;MG;28076;Sudeste
2505907;Emas;-7.09964;-37.7163;PB;3522;Nordeste
3514957;Embaúba;-20.9796;-48.8325;SP;2452;Sudeste
3515004;Embu das Artes;-23.6437;-46.8579;SP;273726;Sudeste
3515103;Embu-Guaçu;-23.8297;-46.8136;SP;69385;Sudeste
3515129;Emilianópolis;-21.8314;-51.4832;SP;3214;Sudeste
4306809;Encantado;-29.2351;-51.8703;RS;22706;Sul
2403301;Encanto;-6.10691;-38.3033;RN;5638;Nordeste
2910404;Encruzilhada;-15.5302;-40.9124;BA;17006;Nordeste
4306908;Encruzilhada do Sul;-30.543;-52.5204;RS;25877;Sul
4107405;Enéas Marques;-25.9445;-53.1659;PR;5961;Sul
4107504;Engenheiro Beltrão;-23.797;-52.2659;PR;14000;Sul
3123700;Engenheiro Caldas;-19.2065;-42.0503;MG;11134;Sudeste
3515152;Engenheiro Coelho;-22.4836;-47.211;SP;20773;Sudeste
3123809;Engenheiro Navarro;-17.2831;-43.947;MG;7242;Sudeste
3301801;Engenheiro Paulo de Frontin;-22.5498;-43.6827;RJ;14002;Sudeste
4306924;Engenho Velho;-27.706;-52.9145;RS;1034;Sul
3123858;Entre Folhas;-19.6218;-42.2306;MG;5370;Sudeste
2910503;Entre Rios;-11.9392;-38.0871;BA;41780;Nordeste
4205175;Entre Rios;-26.7225;-52.5585;SC;3203;Sul
3123908;Entre Rios de Minas;-20.6706;-44.0654;MG;15298;Sudeste
4107538;Entre Rios do Oeste;-24.7042;-54.2385;PR;4539;Sul
4306957;Entre Rios do Sul;-27.5298;-52.7347;RS;2792;Sul
4306932;Entre-Ijuís;-28.3686;-54.2686;RS;8475;Sul
1301506;Envira;-7.43789;-70.0281;AM;20033;Norte
1200252;Epitaciolândia;-11.0188;-68.7341;AC;18411;Norte
2403400;Equador;-6.93835;-36.717;RN;6045;Nordeste
4306973;Erebango;-27.8544;-52.3005;RS;2991;Sul
4307005;Erechim;-27.6364;-52.2697;RS;105862;Sul
2304277;Ererê;-6.02751;-38.3461;CE;7198;Nordeste
2900504;Érico Cardoso;-13.4215;-42.1352;BA;10610;Nordeste
4205191;Ermo;-28.9869;-49.643;SC;2063;Sul
4307054;Ernestina;-28.4977;-52.5836;RS;3168;Sul
4307203;Erval Grande;-27.3926;-52.574;RS;4859;Sul
4307302;Erval Seco;-27.5443;-53.5005;RS;6912;Sul
4205209;Erval Velho;-27.2743;-51.443;SC;4412;Sul
3124005;Ervália;-20.8403;-42.6544;MG;18895;Sudeste
2605202;Escada;-8.35672;-35.2241;PE;68875;Nordeste
4307401;Esmeralda;-28.0518;-51.1933;RS;3282;Sul
3124104;Esmeraldas;-19.764;-44.3065;MG;70552;Sudeste
3124203;Espera Feliz;-20.6508;-41.9119;MG;24951;Sudeste
2506004;Esperança;-7.02278;-35.8597;PB;33007;Nordeste
4307450;Esperança do Sul;-27.3603;-53.9891;RS;2926;Sul
4107520;Esperança Nova;-23.7238;-53.811;PR;1698;Sul
1707405;Esperantina;-5.36593;-48.5378;TO;10996;Norte
2203701;Esperantina;-3.88863;-42.2324;PI;39737;Nordeste
2104008;Esperantinópolis;-4.87938;-44.6926;MA;17241;Nordeste
4107546;Espigão Alto do Iguaçu;-25.4216;-52.8348;PR;4117;Sul
1100098;Espigão D'Oeste;-11.5266;-61.0252;RO;32374;Norte
3124302;Espinosa;-14.9249;-42.809;MG;31617;Sudeste
2403509;Espírito Santo;-6.33563;-35.3052;RN;10505;Nordeste
3124401;Espírito Santo do Dourado;-22.0454;-45.9548;MG;4692;Sudeste
3515186;Espírito Santo do Pinhal;-22.1909;-46.7477;SP;44330;Sudeste
3515194;Espírito Santo do Turvo;-22.6925;-49.4341;SP;4829;Sudeste
2910602;Esplanada;-11.7942;-37.9432;BA;37237;Nordeste
4307500;Espumoso;-28.7286;-52.8461;RS;15588;Sul
4307559;Estação;-27.9135;-52.2635;RS;5958;Sul
2802106;Estância;-11.2659;-37.4484;SE;69184;Nordeste
4307609;Estância Velha;-29.6535;-51.1843;RS;50022;Sul
4307708;Esteio;-29.852;-51.1841;RS;83202;Sul
3124500;Estiva;-22.4577;-46.0191;MG;11354;Sudeste
3557303;Estiva Gerbi;-22.2713;-46.9481;SP;11304;Sudeste
2104057;Estreito;-6.56077;-47.4431;MA;41946;Nordeste
4307807;Estrela;-29.5002;-51.9495;RS;34116;Sul
3124609;Estrela Dalva;-21.7412;-42.4574;MG;2343;Sudeste
2702553;Estrela de Alagoas;-9.39089;-36.7644;AL;18205;Nordeste
3124708;Estrela do Indaiá;-19.5169;-45.7859;MG;3500;Sudeste
3515301;Estrela do Norte;-22.4859;-51.6632;SP;2766;Sudeste
5207501;Estrela do Norte;-13.8665;-49.0716;GO;3275;Centro-Oeste
3124807;Estrela do Sul;-18.7399;-47.6956;MG;7978;Sudeste
3515202;Estrela d'Oeste;-20.2875;-50.4049;SP;8419;Sudeste
4307815;Estrela Velha;-29.1713;-53.1639;RS;3655;Sul
2910701;Euclides da Cunha;-10.5078;-39.0153;BA;60.585;Nordeste
3515350;Euclides da Cunha Paulista;-22.5545;-52.5928;SP;9371;Sudeste
4307831;Eugênio de Castro;-28.5315;-54.1506;RS;2396;Sul
3124906;Eugenópolis;-21.1002;-42.1878;MG;11275;Sudeste
2910727;Eunápolis;-16.3715;-39.5821;BA;113380;Nordeste
2304285;Eusébio;-3.8925;-38.4559;CE;53618;Nordeste
3125002;Ewbank da Câmara;-21.5498;-43.5068;MG;3913;Sudeste
3125101;Extrema;-22.854;-46.3178;MG;36225;Sudeste
2403608;Extremoz;-5.70143;-35.3048;RN;28583;Nordeste
2605301;Exu;-7.50364;-39.7238;PE;31825;Nordeste
2506103;Fagundes;-7.34454;-35.7931;PB;11253;Nordeste
4307864;Fagundes Varela;-28.8794;-51.7014;RS;2731;Sul
5207535;Faina;-15.4473;-50.3622;GO;6627;Centro-Oeste
3125200;Fama;-21.4089;-45.8286;MG;2377;Sudeste
3125309;Faria Lemos;-20.8097;-42.0213;MG;3241;Sudeste
2304301;Farias Brito;-6.92146;-39.5651;CE;19450;Nordeste
1503002;Faro;-2.16805;-56.7405;PA;7194;Norte
4107553;Farol;-24.0958;-52.6217;PR;3089;Sul
4307906;Farroupilha;-29.2227;-51.3419;RS;72331;Sul
3515400;Fartura;-23.3916;-49.5124;SP;16036;Sudeste
2203750;Fartura do Piauí;-9.48342;-42.7912;PI;5307;Nordeste
1707553;Fátima;-10.7603;-48.9076;TO;3835;Norte
2910750;Fátima;-10.616;-38.2239;BA;17890;Nordeste
5003801;Fátima do Sul;-22.3789;-54.5131;MS;19189;Centro-Oeste
4107603;Faxinal;-24.0077;-51.3227;PR;17251;Sul
4308003;Faxinal do Soturno;-29.5788;-53.4484;RS;6677;Sul
4205308;Faxinal dos Guedes;-26.8451;-52.2596;SC;10667;Sul
4308052;Faxinalzinho;-27.4238;-52.6789;RS;2315;Sul
5207600;Fazenda Nova;-16.1834;-50.7781;GO;5637;Centro-Oeste
4107652;Fazenda Rio Grande;-25.6624;-49.3073;PR;100209;Sul
4308078;Fazenda Vilanova;-29.5885;-51.8217;RS;4533;Sul
1200302;Feijó;-8.17054;-70.351;AC;34780;Norte
2910776;Feira da Mata;-14.2044;-44.2744;BA;5665;Nordeste
2910800;Feira de Santana;-12.2664;-38.9663;BA;614872;Nordeste
2702603;Feira Grande;-9.89859;-36.6815;AL;22166;Nordeste
2605400;Feira Nova;-7.94704;-35.3801;PE;22131;Nordeste
2802205;Feira Nova;-10.2616;-37.3147;SE;5584;Nordeste
2104073;Feira Nova do Maranhão;-6.96508;-46.6786;MA;8504;Nordeste
3125408;Felício dos Santos;-18.0755;-43.2422;MG;4753;Sudeste
2403707;Felipe Guerra;-5.59274;-37.6875;RN;5985;Nordeste
3125606;Felisburgo;-16.6348;-40.7605;MG;7457;Sudeste
3125705;Felixlândia;-18.7507;-44.9004;MG;15336;Sudeste
4308102;Feliz;-29.4527;-51.3032;RS;13547;Sul
2702702;Feliz Deserto;-10.2935;-36.3028;AL;4754;Nordeste
5103700;Feliz Natal;-12.385;-54.9227;MT;14192;Centro-Oeste
4107702;Fênix;-23.9135;-51.9805;PR;4762;Sul
4107736;Fernandes Pinheiro;-25.4107;-50.5456;PR;5646;Sul
3125804;Fernandes Tourinho;-19.1541;-42.0803;MG;3431;Sudeste
2605459;Fernando de Noronha;-3.8396;-32.4107;PE;3061;Nordeste
2104081;Fernando Falcão;-6.16207;-44.8979;MA;10360;Nordeste
2403756;Fernando Pedroza;-5.69096;-36.5282;RN;3054;Nordeste
3515608;Fernando Prestes;-21.2661;-48.6874;SP;5783;Sudeste
3515509;Fernandópolis;-20.2806;-50.2471;SP;69116;Sudeste
3515657;Fernão;-22.3607;-49.5187;SP;1716;Sudeste
3515707;Ferraz de Vasconcelos;-23.5411;-46.371;SP;194276;Sudeste
1600238;Ferreira Gomes;0.857256;-51.1795;AP;7780;Norte
2605509;Ferreiros;-7.44666;-35.2373;PE;12.123;Nordeste
3125903;Ferros;-19.2343;-43.0192;MG;9820;Sudeste
3125952;Fervedouro;-20.726;-42.279;MG;11006;Sudeste
4107751;Figueira;-23.8455;-50.4031;PR;7770;Sul
5003900;Figueirão;-18.6782;-53.638;MS;3051;Centro-Oeste
1707652;Figueirópolis;-12.1312;-49.1748;TO;5263;Norte
5103809;Figueirópolis D'Oeste;-15.4439;-58.7391;MT;3494;Centro-Oeste
1707702;Filadélfia;-7.33501;-47.4954;TO;8856;Norte
2910859;Filadélfia;-10.7405;-40.1437;BA;16377;Nordeste
2910909;Firmino Alves;-14.9823;-39.9269;BA;5617;Nordeste
5207808;Firminópolis;-16.5778;-50.304;GO;13292;Centro-Oeste
2702801;Flexeiras;-9.27281;-35.7139;AL;12790;Nordeste
4107850;Flor da Serra do Sul;-26.2523;-53.3092;PR;4624;Sul
4205357;Flor do Sertão;-26.7811;-53.3505;SC;1582;Sul
3515806;Flora Rica;-21.6727;-51.3821;SP;1464;Sudeste
4107801;Floraí;-23.3178;-52.3029;PR;4929;Sul
2403806;Florânia;-6.12264;-36.8226;RN;9116;Nordeste
3515905;Floreal;-20.6752;-50.1513;SP;2917;Sudeste
2605608;Flores;-7.85842;-37.9715;PE;22624;Nordeste
